categoria_principal,shop,amenity,office,tourism,leisure,craft,healthcare,name,addr:street,addr:housenumber,lat,lon,tipo_actividad
shop,bag,,,,,,,Cactus,,,41.3747539,2.1678531,bag
shop,doityourself,,,,,,,Servei Estació,Carrer d'Aragó,272,41.3915276,2.1643195,doityourself
shop,convenience,,,,,,,IKEA Swedish Food Market,,,41.3948927,2.1520612,convenience
shop,copyshop,,,,,,,WorkCenter,Avinguda Diagonal,437,41.3939958,2.1505605,copyshop
shop,supermarket,,,,,,,Open Cor,Carrer del Capità Arenas,25,41.3910021,2.1256514,supermarket
shop,convenience,,,,,,,Supermarket,Rambla de Mercedes,24,41.4123701,2.1546475,convenience
shop,florist,,,,,,,,,,41.3816458,2.1727708,florist
shop,florist,,,,,,,,,,41.3816007,2.1729644,florist
shop,florist,,,,,,,2-Plantas,,,41.3814949,2.1730678,florist
shop,florist,,,,,,,5-M.Escudé,,,41.3817677,2.1726712,florist
shop,florist,,,,,,,La flor de la Rambla,,,41.3821692,2.1724526,florist
shop,florist,,,,,,,La flor de la Rambla,,,41.3822479,2.172391,florist
shop,convenience,,,,,,,Mercat Felip II,,,41.4221944,2.1854353,convenience
shop,supermarket,,,,,,,Condis,,,41.4468135,2.1747937,supermarket
shop,supermarket,,,,,,,Consum,Carrer de Sant Francesc Xavier,8,41.4416041,2.1780626,supermarket
shop,supermarket,,,,,,,Mercadona,,,41.4375701,2.1804956,supermarket
shop,sports,,,,,,,Patinpatl,,,41.3973856,2.1826363,sports
shop,bakery,,,,,,,Forn de Pa Laia,Carrer de Ribes,36,41.3982628,2.18314,bakery
shop,rental,bicycle_rental,,,,,,we bike rent,Carrer de Cervantes,5,41.381257,2.1773769,rental
shop,supermarket,,,,,,,Mercadona,Carrer de Tirso de Molina,20,41.376111,2.1314448,supermarket
shop,butcher,,,,,,,Carniseria Moliner,,,41.3769893,2.1319929,butcher
shop,supermarket,,,,,,,Consum,,,41.3755969,2.1311301,supermarket
shop,supermarket,,,,,,,Dia,Carrer del Roser,18,41.373761,2.1668348,supermarket
shop,supermarket,,,,,,,Condis,,,41.3761509,2.1352817,supermarket
shop,convenience,,,,,,,plats i olles,,,41.4254729,2.1799028,convenience
shop,bakery,,,,,,,,,,41.4458015,2.1764911,bakery
shop,hairdresser,,,,,,,,,,41.4462656,2.1761852,hairdresser
shop,supermarket,,,,,,,Dia,,,41.3901775,2.1488058,supermarket
shop,supermarket,,,,,,,Caprabo,,,41.3789612,2.1704622,supermarket
shop,convenience,,,,,,,Super&Regals,Avenida Gaudí,8,41.4051547,2.1745971,convenience
shop,supermarket,,,,,,,Lidl,Carrer de Bac de Roda,178,41.4127914,2.1974089,supermarket
shop,supermarket,,,,,,,Bonpreu,Carrer d'Andrade,58,41.4124433,2.1967739,supermarket
shop,supermarket,,,,,,,Condis,,,41.4138911,2.2020633,supermarket
shop,supermarket,,,,,,,Condis,Carrer d'Alcántara,14-16,41.4457676,2.1725927,supermarket
shop,bakery,,,,,,,,,,41.4459517,2.1727083,bakery
shop,hairdresser,,,,,,,Marco Aldany,,,41.4046529,2.1962971,hairdresser
shop,optician,cafe,,,,,,Rambla Poblenou,,,41.4046882,2.1967694,optician
shop,supermarket,,,,,,,Mercadona,,,41.4023418,2.1991561,supermarket
shop,confectionery,,,attraction,,,,Pastelería Escribá Rambla De Les Flors,Gran Via de les Corts Catalanes,546,41.3815258,2.1726713,confectionery
shop,gift,,,,,,,Souvernis Sports,La Rambla,69,41.381036,2.1731293,gift
shop,gift,,,,,,,Barcelona is My Style,La Rambla,69,41.3810752,2.1730901,gift
shop,hairdresser,,,,,,,HED,,,41.3843654,2.1693054,hairdresser
shop,jewelry,,,,,,,Aguade Bijuteria,Carrer d'Avinyó,1,41.3818432,2.1755817,jewelry
shop,bakery,,,,,,,Boix,,,41.3836486,2.1695479,bakery
shop,electronics,,,,,,,Telefónica,,,41.3839925,2.170792,electronics
shop,gift,,,,,,,Regals Pacheco,,,41.3840315,2.1707664,gift
shop,convenience,,,,,,,Saha,,,41.3843196,2.1686707,convenience
shop,chemist,,,,,,,Drogueria Gomara,,,41.383702,2.1693268,chemist
shop,stationery,,,,,,,La Bolsera Professional,Carrer d'en Xuclà,15,41.3833679,2.1700135,stationery
shop,bicycle,,,,,,,Ciclo tour,,,41.3846255,2.1679948,bicycle
shop,convenience,,,,,,,La Portorriqueña,Carrer d'en Xuclà,25,41.3836497,2.1694288,convenience
shop,herbalist,,,,,,,Manantial de Salud,,,41.3836208,2.1696144,herbalist
shop,furniture,,,,,,,Matalasseria Agustí Montfort,,,41.3834726,2.169815,furniture
shop,greengrocer,,,,,,,L'Olla Framir,,,41.3834122,2.1699008,greengrocer
shop,books,,,,,,,Testimonio,,,41.3834404,2.1698579,books
shop,stationery,,,,,,,Party-Fiesta,,,41.3833855,2.1702901,stationery
shop,butcher,,,,,,,P.Toran,,,41.3843133,2.1665958,butcher
shop,gift,,,,,,,Henna,,,41.3844156,2.1685396,gift
shop,doityourself,,,,,,,Beca-Medri,,,41.3844697,2.1684824,doityourself
shop,greengrocer,,,,,,,Fruteria Jaime,,,41.3845732,2.1682362,greengrocer
shop,stationery,,,,,,,Llenas,,,41.3848139,2.1681764,stationery
shop,clothes,,,,,,,Salewa Store Barcelona,Carrer de la Canuda,41,41.3849468,2.1730368,clothes
shop,laundry,,,,,,,1991,,,41.402923,2.1446664,laundry
shop,hairdresser,,,,,,,Perrocker,,,41.4029834,2.1451385,hairdresser
shop,supermarket,,,,,,,Caprabo,,,41.4023154,2.1452028,supermarket
shop,supermarket,,,,,,,Consum,,,41.4024683,2.1456319,supermarket
shop,bakery,,,,,,,Bopan,,,41.4012853,2.1468444,bakery
shop,shoes,,,,,,,Camila's,,,41.4014221,2.1469409,shoes
shop,yes,,,,,,,Raig,,,41.3852806,2.1697931,yes
shop,photo,,,,,,,Panorama,,,41.3847922,2.1701768,photo
shop,musical_instrument,,,,,,,Musical Emporium,,,41.384988,2.1700387,musical_instrument
shop,kiosk,,,,,,,,,,41.3851947,2.1703857,kiosk
shop,clothes,,,,,,,Florencia,,,41.3852613,2.1705549,clothes
shop,convenience,,,,,,,Consum,,,41.4130618,2.2176703,convenience
shop,mobile_phone,,,,,,,Orange,,,41.3863068,2.1710418,mobile_phone
shop,clothes,,,,,,,Decimas,,,41.3885959,2.1723798,clothes
shop,clothes,,,,,,,Levi's,Passeig de Gràcia,41,41.3915093,2.1651777,clothes
shop,art,,,,,,,Sala Dalmau,Carrer del Consell de Cent,349-351,41.3910304,2.1654329,art
shop,bag,,,,,,,Tumi,Carrer de la Diputació,267,41.3902811,2.1666454,bag
shop,clothes,,,,,,,Nike,Passeig de Gràcia,17,41.3898059,2.1672174,clothes
shop,supermarket,,,,,,,Condis,Carrer de la Junta del Comerç,19,41.3796645,2.1717527,supermarket
shop,supermarket,,,,,,,Jespac,Carrer de Mallorca,187-189,41.3896126,2.1567295,supermarket
shop,chemist,,,,,,,Schlecker,,,41.3903227,2.156848,chemist
shop,car_repair,,,,,,,VW,,,41.3887829,2.1557461,car_repair
shop,supermarket,,,,,,,Condis,Avinguda del Paral·lel,93,41.3747729,2.16436,supermarket
shop,supermarket,,,,,,,Caprabo,,,41.3806017,2.1889995,supermarket
shop,convenience,,,,,,,Colmado Alegre,Lança,43,41.3801719,2.1452053,convenience
shop,supermarket,,,,,,,Caprabo,,,41.3952853,2.1242464,supermarket
shop,frozen_food,,,,,,,La Sirena,,,41.3956814,2.1249031,frozen_food
shop,supermarket,,,,,,,Dia,,,41.4170257,2.1707589,supermarket
shop,supermarket,,,,,,,Covirán,Avinguda de la Mare de Déu de Montserrat,139,41.4166857,2.17028,supermarket
shop,mobile_phone,,,,,,,Vodafone,,,41.3863872,2.172348,mobile_phone
shop,convenience,,,,,,,Queviures Atlàntida,,,41.3903555,2.1457839,convenience
shop,supermarket,,,,,,,Mercadona,Carrer d'Andrade,22,41.4107728,2.194425,supermarket
shop,supermarket,,,,,,,Supermercat Pintor Fortuny,Carrer del Pintor Fortuny,32,41.3823171,2.16861,supermarket
shop,alcohol,bar,,,,,,2D2Dspuma,Carrer de la Manigua,8,41.4225197,2.1794431,alcohol
shop,bakery,,,,,,,,,,41.44684,2.1756309,bakery
shop,car_repair,,,,,,,,,,41.4462328,2.1756899,car_repair
shop,gift,,,,,,,Botiga oficial,,,41.4134339,2.1529905,gift
shop,convenience,,,,,,,,,,41.3852426,2.16591,convenience
shop,mall,,,,,,,El Triangle,Plaça de Catalunya,1-4,41.3858984,2.1690931,mall
shop,vacant,,,,,,,,Carrer de Calàbria,263,41.3871047,2.1447862,vacant
shop,newsagent,,,,,,,,,,41.3863303,2.1441065,newsagent
shop,variety_store,,,,,,,Action,,,41.3861486,2.1444284,variety_store
shop,supermarket,,,,,,,Coaliment Paris,Carrer de París,53-61,41.3869796,2.1442296,supermarket
shop,supermarket,,,,,,,Caprabo,Carrer de Rocafort,235,41.3851237,2.1454326,supermarket
shop,supermarket,,,,,,,Caprabo,,,41.3761973,2.1686774,supermarket
shop,hardware,,,,,,,Merino,,,41.3770044,2.1698129,hardware
shop,supermarket,,,,,,,Dia,,,41.3826721,2.1711395,supermarket
shop,supermarket,,,,,,,Supermercat Coaliment,Carrer Bergara,5,41.3860999,2.1679417,supermarket
shop,supermarket,,,,,,,Bonpreu,Carrer de Pi i Margall,,41.4065703,2.1635248,supermarket
shop,hairdresser,,,,,,,,,,41.4052048,2.2125855,hairdresser
shop,greengrocer,,,,,,,Cal Fruitós,,,41.4048148,2.19663,greengrocer
shop,bicycle,,,,,,,Biking Point Provença,Carrer de Provença,157,41.3895576,2.1544404,bicycle
shop,supermarket,,,,,,,BonÀrea,,,41.3887775,2.1546114,supermarket
shop,supermarket,,,,,,,Spar,,,41.3918433,2.152291,supermarket
shop,bicycle,,,,,,,King Bikes,,,41.4206171,2.138335,bicycle
shop,supermarket,,,,,,,Dia,Carrer Vinyar,,41.4408242,2.1819658,supermarket
shop,florist,,,,,,,L'hort de casa meva,,,41.446744,2.174302,florist
shop,supermarket,,,,,,,Jespac,Avinguda de la República Argentina,179-181,41.4114593,2.1420651,supermarket
shop,bakery,,,,,,,L'Obrador del Molí,Avinguda Republica Argentina,,41.4114567,2.1421601,bakery
shop,erotic,,,,,,,Amantis Sant Antoni,Carrer de Casanova,15,41.3832531,2.1614436,erotic
shop,bakery,,,,,,,Horno Sant Jordi S.L.,Carrer de la Llibreteria,8,41.3830987,2.177326,bakery
shop,convenience,,,,,,,Bio Nyam,Travessera de Gràcia,"315,317",41.4064736,2.1659151,convenience
shop,vacant,,,,,,,,Sant Domenec,6,41.3997355,2.1563802,vacant
shop,bakery,,,,,,,MaxciPa,Avinguda Republica Argentina,,41.4114571,2.1422306,bakery
shop,convenience,,,,,,,,,,41.4061799,2.1901275,convenience
shop,bakery,,,,,,,Jaume,,,41.4078939,2.1888829,bakery
shop,bakery,,,,,,,Forn,,,41.4064857,2.1904601,bakery
shop,bakery,,,,,,,,,,41.4181707,2.1408096,bakery
shop,bakery,,,,,,,La Farineta,,,41.4187531,2.1396071,bakery
shop,convenience,,,,,,,,,,41.4190127,2.1410716,convenience
shop,kiosk,,,,,,,Oliva Negra,,,41.4194226,2.1409726,kiosk
shop,convenience,,,,,,,Super Fresco,,,41.420389,2.1407818,convenience
shop,convenience,,,,,,,,,,41.4181317,2.1408139,convenience
shop,convenience,,,,,,,Bruniquer,Carrer de Bruniquer,63,41.4056945,2.1622289,convenience
shop,pet,,,,,,,BUF,,,41.4070008,2.1636054,pet
shop,sports,,,,,,,Lluch,Carrer d'Hipòlit Lázaro,34,41.40726,2.1638032,sports
shop,kiosk,,,,,,,Quiosc Albert Collado,,,41.4052393,2.1630302,kiosk
shop,convenience,,,,,,,Mayor i Detall,,,41.4071685,2.1628702,convenience
shop,florist,,,,,,,bonbee,Carrer de Pi i Margall,"1,3",41.405981,2.1627408,florist
shop,supermarket,,,,,,,Consum,,,41.3771709,2.1255716,supermarket
shop,supermarket,,,,,,,Consum,,,41.3793567,2.1260534,supermarket
shop,supermarket,,,,,,,Condis,,,41.3780137,2.1270245,supermarket
shop,supermarket,,,,,,,Caprabo,,,41.3776523,2.1293602,supermarket
shop,medical_supply,,,,,,,Ortofarmàcia Serra-Fortuny,,,41.4067413,2.1777391,medical_supply
shop,supermarket,,,,,,,Lidl,,,41.4063957,2.1808131,supermarket
shop,supermarket,,,,,,,Lidl,,,41.3741246,2.1307557,supermarket
shop,chemist,,,,,,,Clarel,,,41.3781103,2.1271913,chemist
shop,greengrocer,,,,,,,Punt Fresc,,,41.3796431,2.1266274,greengrocer
shop,kiosk,,,,,,,,,,41.3760511,2.1641229,kiosk
shop,copyshop,,,,,,,,,,41.3898727,2.1501775,copyshop
shop,bakery,,,,,,,Forn de la Virreina,,,41.4040442,2.1580138,bakery
shop,kiosk,,,,,,,,,,41.3909259,2.1517056,kiosk
shop,kiosk,,,,,,,,,,41.4039498,2.1736355,kiosk
shop,bakery,,,,,,,MacxiPa,,,41.4061309,2.1763758,bakery
shop,greengrocer,,,,,,,El cabàs,Carrer de Provença,487,41.4065237,2.1770851,greengrocer
shop,kiosk,,,,,,,,Carrer de Cartagena,230,41.4070425,2.1799597,kiosk
shop,greengrocer,,,,,,,Supermercat Fruites i Verdures,,,41.4066059,2.1800635,greengrocer
shop,bakery,,,,,,,Forn Jovic,Carrer de los Castillejos,243,41.404947,2.1801932,bakery
shop,greengrocer,,,,,,,Frutas y Verduras Castillejos,,,41.4039161,2.1815407,greengrocer
shop,greengrocer,,,,,,,Sanabra Fruites Verdures,Carrer de Padilla,216,41.4042151,2.1793718,greengrocer
shop,optician,,,,,,,Arense,Carrer de Provença,470,41.4053904,2.1758527,optician
shop,bakery,,,,,,,Paníssim,Carrer de Padilla,240,41.4057132,2.1773913,bakery
shop,greengrocer,,,,,,,Disfruta,Carrer de los Castillejos,261,41.4057825,2.1790164,greengrocer
shop,supermarket,,,,,,,Condis,,,41.3732668,2.1695439,supermarket
shop,convenience,,,,,,,Alimentació Bach,Carrer de Sant Lluís,27,41.4049736,2.1594408,convenience
shop,bakery,,,,,,,Santa Clara,Travessera de Gràcia,,41.4033977,2.1613308,bakery
shop,convenience,,,,,,,Alimentacion Mila,,,41.4018549,2.1617176,convenience
shop,bakery,,,,,,,Forn Yara,Carrer de Milà i Fontanals,54,41.4017827,2.161802,bakery
shop,supermarket,,,,,,,Herbodietètica Las Maravillas,Carrer de la Fraternitat,46,41.4010895,2.1599276,supermarket
shop,convenience,,,,,,,Carrefour Market,,,41.392021,2.1259431,convenience
shop,convenience,,,,,,,España Alimentació,,,41.4229296,2.1459186,convenience
shop,supermarket,,,,,,,Condis,,,41.4222359,2.1441562,supermarket
shop,hardware,,,,,,,FECRA,Carrer d'Arenys,32,41.4219285,2.1433495,hardware
shop,bakery,,,,,,,Mollipa Forners,,,41.4218097,2.1427604,bakery
shop,supermarket,,,,,,,,Gran Via de les Corts Catalanes,581,41.3854678,2.1625757,supermarket
shop,hardware,,,,,,,Cofac Rubens,,,41.4278705,2.1585951,hardware
shop,supermarket,,,,,,,Bonpreu,,,41.3932977,2.1249657,supermarket
shop,kiosk,,,,,,,,,,41.3900949,2.1260686,kiosk
shop,kiosk,,,,,,,,,,41.3898697,2.1205601,kiosk
shop,convenience,,,,,,,A Deshora (24h),,,41.3903537,2.12436,convenience
shop,books,,,,,,,"Papereria i llibreria ""Centro Europeo""",,,41.3900279,2.1233515,books
shop,bakery,,,,,,,MacxiPa,,,41.3911103,2.1246443,bakery
shop,hairdresser,,,,,,,Llongueras,,,41.3927753,2.1267716,hairdresser
shop,car,,,,,,,Quadis Autolica,Passeig de Manuel Girona,,41.3916586,2.1257589,car
shop,clothes,,,,,,,H&M,Avinguda Diagonal,579-585,41.3891616,2.1325571,clothes
shop,seafood,,,,,,,,,,41.3940666,2.1257735,seafood
shop,bakery,,,,,,,L'Obrador del molí,,,41.3941806,2.1264085,bakery
shop,bakery,,,,,,,Pastisseria Santa Gemma (TANCAT/CLOSED),Carrer de Manila,,41.3900845,2.1259042,bakery
shop,convenience,,,,,,,SEMON (TANCAT/CLOSED 2006),Carrer del Capità Arenas,,41.390306,2.1259364,convenience
shop,greengrocer,,,,,,,,,,41.3936983,2.1249957,greengrocer
shop,bakery,,,,,,,Maxipan,,,41.3938292,2.1253337,bakery
shop,alcohol,,,,,,,Lafuente,,,41.3949077,2.124411,alcohol
shop,bakery,,,,,,,El Molí Vell,,,41.3934429,2.1265729,bakery
shop,pastry,,,,,,,Pastisseria Forn de Sant Joan,,,41.4039284,2.155133,pastry
shop,supermarket,,,,,,,Organic Market,Carrer d'Astúries,22,41.4031304,2.1540527,supermarket
shop,books,,,,,,,Hibernian Llibreria Anglesa,,,41.4019349,2.1546299,books
shop,outdoor,,,,,,,Cerclesport,Carrer de Sant Lluís,44-48,41.4056139,2.1606936,outdoor
shop,hairdresser,,,,,,,Sesion Perruquers (Home),,,41.4053467,2.1599869,hairdresser
shop,garden_centre,,,,,,,Jarclos,,,41.4169991,2.1355783,garden_centre
shop,car_repair,,,,,,,Electro Mecánica de la Automoción s.l.,,,41.4152178,2.142651,car_repair
shop,kiosk,,,,,,,Quiosc Revolució,,,41.4024637,2.1582859,kiosk
shop,supermarket,,,,,,,OpenCor,,,41.3947291,2.133976,supermarket
shop,clothes,,,,,,,Sfera,Avinguda Diagonal,557,41.3901353,2.1367953,clothes
shop,sports,,,,,,,Decathlon,Avinguda Diagonal,557,41.3893549,2.1333023,sports
shop,clothes,,,,,,,Primark,,,41.3892535,2.1366859,clothes
shop,electronics,,,,,,,Fnac,,,41.3900974,2.1363247,electronics
shop,supermarket,,,,,,,Jespac Supermercats,Carrer del Consell de Cent,246,41.3869304,2.1603923,supermarket
shop,convenience,,,,,,,Salgado,Carrer del Beat Almató,,41.4164639,2.1475324,convenience
shop,bakery,,,,,,,Forn Mistral. Gràcia,Carrer d'Astúries,35,41.4034174,2.1542957,bakery
shop,computer,,,,,,,Traxtore,Carrer de Sepúlveda,155,41.3834144,2.1625429,computer
shop,convenience,,,,,,,Mini Mix,,,41.3830876,2.1850665,convenience
shop,books,,,,,,,La Central,Carrer de Mallorca,237,41.3920495,2.1600012,books
shop,medical,,,,,,,Ortopèdia Vall d'Hebron,,,41.4208852,2.1407896,medical
shop,supermarket,,,,,,,Bon Area,,,41.4012482,2.151385,supermarket
shop,electronics,,,,,,,CeX,Passeig de Fabra i Puig,123,41.4300765,2.1815374,electronics
shop,florist,,,,,,,Flores y Plantas San Juan,,,41.4185278,2.1394972,florist
shop,bakery,,,,,,,Forn del Passeig,Passeig de Fabra i Puig,140,41.4303903,2.1810197,bakery
shop,bakery,,,,,,,,,,41.4314962,2.1805659,bakery
shop,supermarket,,,,,,,Caprabo,,,41.4303627,2.1791329,supermarket
shop,furniture,,,,,,,FACIL mobel,,,41.43043,2.1800969,furniture
shop,clothes,,,,,,,INside,,,41.4303523,2.1797849,clothes
shop,convenience,,,,,,,Autoservicio Manuel Alonso,,,41.4307545,2.1810239,convenience
shop,shoes,,,,,,,EL PASEO,,,41.4301405,2.1796521,shoes
shop,telecommunication,,,,,,,Orange,,,41.4301335,2.1785664,telecommunication
shop,confectionery,,,,,,,Pastisseria LLISO,,,41.4303806,2.1777862,confectionery
shop,books,,,,,,,Santos Ochoa,,,41.4301361,2.1784595,books
shop,clothes,,,,,,,Stradivarius,,,41.4303518,2.1789375,clothes
shop,telecommunication,,,,,,,Movistar,,,41.4305078,2.1815624,telecommunication
shop,telecommunication,,,,,,,Movistar,,,41.4304186,2.1806077,telecommunication
shop,travel_agency,,,,,,,Viajes Iberia,,,41.4303239,2.1821933,travel_agency
shop,telecommunication,,,,,,,Vodafone,,,41.430327,2.1820014,telecommunication
shop,telecommunication,,,,,,,Vodafone,,,41.4305445,2.1810098,telecommunication
shop,supermarket,,,,,,,Condis,Rambla de Volart,12,41.4160116,2.1793486,supermarket
shop,bakery,,,,,,,Forn de la Lluisa,,,41.3973886,2.1810451,bakery
shop,bakery,,,,,,,El molí vell,,,41.435776,2.191071,bakery
shop,kiosk,,,,,,,,,,41.4097288,2.1552549,kiosk
shop,supermarket,,,,,,,Sorli Discau,,,41.4080772,2.1567221,supermarket
shop,hairdresser,,,,,,,El Tocador de Lula,Plaça de Rovira Trias,5,41.4075559,2.1587772,hairdresser
shop,optician,,,,,,,Ray-Ban,,,41.3889322,2.1694429,optician
shop,greengrocer,,,,,,,,,,41.3860342,2.1745693,greengrocer
shop,copyshop,,,,,,,,,,41.3709742,2.1819797,copyshop
shop,books,,,,,,,Papeleria Dorita,Carrer de Teodora Lamadrid,26,41.4068996,2.1366703,books
shop,bakery,,,,,,,itaway,Carrer del Rosselló,112,41.3884737,2.1511604,bakery
shop,convenience,,,,,,,Open Super Fresc Alimentació,Carrer del Rosselló,145,41.3885025,2.1508079,convenience
shop,copyshop,,,,,,,Centre d'Impressió Digital,Carrer del Rosselló,143,41.3884683,2.1507585,copyshop
shop,bakery,,,,,,,La Panera,,,41.4374937,2.1563976,bakery
shop,car_repair,,,,,,,Rodi,,,41.4362591,2.1539407,car_repair
shop,hairdresser,,,,,,,Meyca,,,41.4372082,2.1575429,hairdresser
shop,supermarket,,,,,,,Condis,,,41.4356437,2.1571111,supermarket
shop,confectionery,,,,,,,House of Candy,Gran Via de les Corts Catalanes,618,41.3878102,2.1665612,confectionery
shop,supermarket,,,,,,,Super Casanova,Carrer de Casanova,,41.3824052,2.1624256,supermarket
shop,supermarket,,,,,,,Condis,,,41.3771825,2.1121417,supermarket
shop,convenience,,,,,,,Ultramarins Salatiel,Carrer de Pizarro,11,41.3817333,2.1883594,convenience
shop,gift,,,,,,,ALE-HOP,,,41.3819147,2.1869178,gift
shop,bakery,,,,,,,Forn de pa Balboa,,,41.3820054,2.1880447,bakery
shop,supermarket,,,,,,,Dia,,,41.3822852,2.188448,supermarket
shop,supermarket,,,,,,,Spar,,,41.3801129,2.1882542,supermarket
shop,supermarket,,,,,,,Spar,,,41.3803462,2.1887534,supermarket
shop,supermarket,,,,,,,Condis,,,41.3820067,2.1898797,supermarket
shop,kiosk,,,,,,,,,,41.3797787,2.1891624,kiosk
shop,supermarket,,,,,,,Condis,Carrer d'Aragó,526,41.4052364,2.182648,supermarket
shop,supermarket,,,,,,,Condis,,,41.4107795,2.1883281,supermarket
shop,sports,,,,,,,Football Addicts,Carrer de la Marina,251,41.4033556,2.1757042,sports
shop,supermarket,,,,,,,Mercat Villalba,,,41.3773681,2.119519,supermarket
shop,bakery,,,,,,,Lola's Cake,Sepúlveda 123,,41.3809597,2.1592836,bakery
shop,supermarket,,,,,,,Bonpreu,,,41.4140368,2.18928,supermarket
shop,bag,,,,,,,PINZAT,Carrer de Grunyí,7,41.3840987,2.1802839,bag
shop,florist,,,,,,,,,,41.4386871,2.169763,florist
shop,bakery,,,,,,,Rovira,,,41.3759528,2.1177927,bakery
shop,coffee,,,,,,,Cafetería Rocafort,Carrer de Rocafort,246-248,41.3863539,2.1441127,coffee
shop,motorbike rent and travels,,,,,,,PauTravelMoto,Diputació,18,41.3775889,2.1502404,motorbike rent and travels
shop,convenience,,,,,,,,,,41.395195,2.1427458,convenience
shop,supermarket,,,,,,,,,,41.3955415,2.1423536,supermarket
shop,accessories,,,,,,,Rosanne,Vidrieria,11,41.3841468,2.1829539,accessories
shop,supermarket,,,,,,,Consum,,,41.3820828,2.1367034,supermarket
shop,supermarket,,,,,,,Condis,Plaça del Centre,9,41.3822563,2.1357698,supermarket
shop,car,,,,,,,Mazda Inter Sport,,,41.3846971,2.1361849,car
shop,car,,,,,,,Volkswagen,,,41.3836078,2.1366776,car
shop,supermarket,,,,,,,Mercadona,,,41.381252,2.1267921,supermarket
shop,car_repair,,,,,,,,,,41.3787935,2.1230471,car_repair
shop,supermarket,,,,,,,Caprabo,,,41.3804716,2.1298667,supermarket
shop,chemist,,,,,,,Rossmann,Carrer de Numància,46,41.3832208,2.1394525,chemist
shop,supermarket,,,,,,,Caprabo,Carrer de Cartellà,87,41.4281908,2.170384,supermarket
shop,supermarket,,,,,,,Condis,Carrer de Cartellà,83-85,41.4280184,2.171184,supermarket
shop,supermarket,,,,,,,Caprabo,Carrer de Costa i Cuxart,13-23,41.4279901,2.174133,supermarket
shop,supermarket,,,,,,,Dia,Carrer de Radas,7,41.3745191,2.1612935,supermarket
shop,chemist,,,,,,,Clarel,Carrer de Radas,1,41.3746757,2.1613801,chemist
shop,supermarket,,,,,,,BonÀrea,Carrer de Radas,2B,41.3738074,2.1608907,supermarket
shop,bakery,,,,,,,365 café,Avinguda del Paral·lel,54,41.3750944,2.1710992,bakery
shop,bakery,,,,,,,Vivari,,,41.3824889,2.137724,bakery
shop,bakery,,,,,,,Arenas Molins,,,41.3827747,2.1385019,bakery
shop,bakery,,,,,,,Masedy,,,41.3827529,2.1383963,bakery
shop,bakery,,,,,,,365,,,41.3832695,2.1386857,bakery
shop,car,,,,,,,Volvo,,,41.3835486,2.1393697,car
shop,supermarket,,,,,,,Mercadona,Carrer de Ramon Turró,331-335,41.4061304,2.2109384,supermarket
shop,supermarket,,,,,,,Mercadona,Carrer de Provençals,22 C,41.4064398,2.2101589,supermarket
shop,erotic,,,,,,,Condonia.com,Avinguda de Mistral,10,41.3775301,2.1588625,erotic
shop,hairdresser,,,,,,,El Petit Saló,Sant Crist,50,41.3746579,2.1384455,hairdresser
shop,car_repair,,,,,,,Castillo Motors,Carrer d'Almeria,14,41.3736637,2.1380861,car_repair
shop,supermarket,,,,,,,Caprabo,,,41.3745734,2.1387839,supermarket
shop,supermarket,,,,,,,Mercadona,Carrer de Tarragona,177,41.3794731,2.1432138,supermarket
shop,bakery,,,,,,,Forn Solá,Carrer del Regomir,12,41.3811616,2.1795361,bakery
shop,butcher,,,,,,,Cansaladeria Corominas,Carrer del Regomir,10,41.3811755,2.1794552,butcher
shop,supermarket,,,,,,,Dia Market,Carrer de la Comtessa de Sobradiel,3,41.3808774,2.1780868,supermarket
shop,convenience,,,,,,,Supermercats Llibreteria,Carrer de la Llibreteria,5,41.3831119,2.1771794,convenience
shop,kiosk,,,,,,,,,,41.3772531,2.1466768,kiosk
shop,kiosk,,,,,,,ONCE,,,41.3758405,2.1496236,kiosk
shop,kiosk,,,,,,,ONCE,,,41.3750466,2.1704648,kiosk
shop,coffee,cafe,,,,,,chromatic café,Carrer de les Carolines,26,41.4032686,2.150339,coffee
shop,convenience,,,,,,,Carrefour Express,,,41.4048872,2.1737361,convenience
shop,clothes,,,,,,,Atalanta,Carrer de la Princesa,10,41.3844885,2.1792911,clothes
shop,clothes,,,,,,,Cotoners,,,41.3843533,2.179533,clothes
shop,gift,,,,,,,Montcada 8,,,41.3852086,2.1805396,gift
shop,supermarket,,,,,,,Condis,,,41.4279078,2.1794063,supermarket
shop,florist,,,,,,,Floristeria Jacaranda,"Travessera de Dalt, 21",21,41.4085507,2.1519573,florist
shop,newsagent,,,,,,,,,,41.4233659,2.2058401,newsagent
shop,supermarket,,,,,,,Condis,,,41.4429836,2.1765635,supermarket
shop,hairdresser,,,,,,,,,,41.4427302,2.1752342,hairdresser
shop,kiosk,,,,,,,,,,41.3660898,2.1520799,kiosk
shop,supermarket,,,,,,,Dia,Avinguda de la República Argentina,31,41.4083034,2.1472479,supermarket
shop,supermarket,,,,,,,Dia,Carrer de Verdi,237,41.4095619,2.1512953,supermarket
shop,supermarket,,,,,,,Ametller Origen,Carrer del Torrent de l'Olla,187,41.405565,2.1532652,supermarket
shop,supermarket,,,,,,,Dia,Carrer de Guillem Tell,28-32,41.402391,2.1482945,supermarket
shop,supermarket,,,,,,,Plusfresc,Carrer de Teodora Lamadrid,21,41.4064092,2.1371428,supermarket
shop,supermarket,,,,,,,Dia,Carrer de Craywinckel,20,41.4117734,2.1388768,supermarket
shop,convenience,,,,,,,La Botigueta,,,41.4270319,2.0890763,convenience
shop,supermarket,,,,,,,Condis,,,41.3717889,2.1411244,supermarket
shop,convenience,,,,,,,Mon Natura,,,41.3728004,2.1390705,convenience
shop,bicycle,,,,,,,Escapa,Carrer de Viladomat,310,41.3894791,2.1445602,bicycle
shop,kiosk,,,,,,,,,,41.3810986,2.1420643,kiosk
shop,kiosk,,,,,,,,,,41.3857808,2.1879271,kiosk
shop,clothes,,,,,,,Señor,Rambla de Catalunya,60,41.3913941,2.1635108,clothes
shop,hairdresser,,,,,,,Colectivo Salón,Carrer de la Ciutat,11,41.3819034,2.1784861,hairdresser
shop,variety_store,,,,,,,Flying Tiger Copenhagen,Ronda de la Universitat,11,41.3864494,2.1656311,variety_store
shop,supermarket,,,,,,,Consum,,,41.3714024,2.1382777,supermarket
shop,greengrocer,,,,,,,Sbó,Avenida de Madrid,159,41.3807498,2.1314117,greengrocer
shop,bakery,,,,,,,El Molí Vell,Carrer d'Aribau,157,41.3928615,2.1532879,bakery
shop,training_centre,,,,,,,Master Centre d'Estudis Spain S.l.,Carrer de Provença,463,41.4055088,2.1757978,training_centre
shop,butcher,,,,,,,Plataforma Carnica,,,41.4054694,2.1759603,butcher
shop,mobile_phone,,,,,,,Om Sai Ram Telefonia,,,41.405324,2.1758399,mobile_phone
shop,hairdresser,,,,,,,Perruqueria unisex Iglesias Vide,,,41.4053507,2.1758416,hairdresser
shop,household_supply_store,,,,,,,Teixide,,,41.4055437,2.1760561,household_supply_store
shop,clothes,,,,,,,Moliné,,,41.4055852,2.1761135,clothes
shop,supermarket,,,,,,,Dia,Carrer del Rosselló,443-445,41.4059186,2.1738847,supermarket
shop,beauty,,,,,,,Nails & Friends,,,41.4060239,2.1763822,beauty
shop,mobile_phone,,,,,,,Mobile Shop,,,41.4060063,2.1763601,mobile_phone
shop,clothes,,,,,,,La Perroqueria,,,41.4056668,2.1759786,clothes
shop,travel_agency,,,,,,,Nautalia,,,41.4060683,2.1763695,travel_agency
shop,clothes,,,,,,,Olivella,,,41.4054625,2.1755543,clothes
shop,travel_agency,,,,,,,Continental Travels,Carrer de Provença,471,41.4059042,2.1762331,travel_agency
shop,beauty,,,,,,,,,,41.4059585,2.1763055,beauty
shop,dry_cleaning,,,,,,,,,,41.4057352,2.1760697,dry_cleaning
shop,florist,,,,,,,Aloha,,,41.4063414,2.1766106,florist
shop,chemist,,,,,,,Clarel,,,41.4063328,2.1766895,chemist
shop,supermarket,,,,,,,Caprabo,,,41.4064566,2.1772722,supermarket
shop,clothes,,,,,,,Humana,,,41.4064985,2.1773261,clothes
shop,greengrocer,,,,,,,Sa2Pe S.L.,,,41.4065692,2.1774183,greengrocer
shop,hardware,,,,,,,Pablos,,,41.406626,2.1775063,hardware
shop,butcher,,,,,,,Delicatessen Argentina,Carrer de Lepant,269,41.4044653,2.1763837,butcher
shop,motorcycle,,,,,,,Vesping,passatge de Francesca Simon,24,41.404621,2.1735916,motorcycle
shop,supermarket,,,,,,,Lidl,Carrer de Bailèn,165-167,41.4004677,2.1656895,supermarket
shop,supermarket,,,,,,,Bonpreu,,,41.3997176,2.1678404,supermarket
shop,supermarket,,,,,,,,,,41.3728967,2.1256964,supermarket
shop,florist,,,,,,,,,,41.3727147,2.1257714,florist
shop,clothes,,,,,,,,,,41.3907025,2.1980464,clothes
shop,music,,,,,,,,,,41.3908011,2.1976089,music
shop,gift,,,,,,,,,,41.3910969,2.1975527,gift
shop,confectionery,,,,,,,Maxidolç,,,41.3933642,2.1570588,confectionery
shop,deli,,,,,,,Redín,,,41.393209,2.1570193,deli
shop,variety_store,,,,,,,Super Preu Únic,,,41.3931459,2.1569449,variety_store
shop,travel_agency,,,,,,,Viatges Taunus,,,41.3934053,2.1570386,travel_agency
shop,furniture,,,,,,,banak importa,Carrer del Rosselló,,41.3927928,2.1564863,furniture
shop,shoes,,,,,,,Casas,,,41.3937479,2.159501,shoes
shop,hairdresser,,,,,,,Cebado,,,41.3938745,2.1593307,hairdresser
shop,optician,,,,,,,Cottet,,,41.3934757,2.1596433,optician
shop,haberdashery,,,,,,,La Selecta,,,41.3937908,2.1594368,haberdashery
shop,clothes,,,,,,,Mad,,,41.3936767,2.1595917,clothes
shop,shoes,,,,,,,Mar Bessas,,,41.3938264,2.1593852,shoes
shop,bag,,,,,,,Misako,,,41.393907,2.1592875,bag
shop,clothes,,,,,,,NKN Nekane,,,41.3939572,2.1592093,clothes
shop,clothes,,,,,,,Gina,,,41.3925006,2.1582082,clothes
shop,toys,,,,,,,Ananda cases i nines,,,41.3926089,2.1580444,toys
shop,books,,,,,,,Come in,Carrer de Balmes,129 bis,41.3930596,2.1573687,books
shop,books,,,,,,,Freixanet llibres,,,41.3919405,2.157645,books
shop,jewelry,,,,,,,Pellicer,,,41.3925393,2.1582038,jewelry
shop,motorcycle,,,,,,,Polo,,,41.3922234,2.157996,motorcycle
shop,estate_agent,,,,,,,gestió inmobiliaria alfa,,,41.3919927,2.1576782,estate_agent
shop,paint,,,,,,,rigual,,,41.3925859,2.1581902,paint
shop,optician,,,,,,,Óptica Tarragón,,,41.3923305,2.1581113,optician
shop,car_parts,,,,,,,Auto Rossellón,,,41.3923458,2.1565263,car_parts
shop,supermarket,,,,,,,Bonpreu,Carrer de Provença,185,41.3911342,2.156549,supermarket
shop,florist,,,,,,,Dada flor,,,41.3910318,2.1564169,florist
shop,antiques,,,,,,,Fins de siecles,Carrer d'Enric Granados,70,41.3922421,2.1566747,antiques
shop,deli,,,,,,,Mas Bacus,Carrer d'Enric Granados,,41.3921736,2.1567418,deli
shop,clothes,,,,,,,Rosell,,,41.3924245,2.1565242,clothes
shop,travel_agency,,,,,,,Temps d'Oci Viatges,Carrer d'Enric Granados,72,41.3923153,2.1565907,travel_agency
shop,kiosk,,,,,,,,,,41.3925944,2.156547,kiosk
shop,florist,,,,,,,Floristeria La Torreta,,,41.4042082,2.2036427,florist
shop,supermarket,,,,,,,BonÀrea,,,41.4004176,2.203854,supermarket
shop,gift,,,,,,,Market & Store,Rambla del Poblenou,52,41.4002298,2.2025218,gift
shop,bakery,,,,,,,El fornet de Can Romà,,,41.4066798,2.2075637,bakery
shop,chemist,pharmacy,,,,,pharmacy,"Farmàcia Magrinyà Rull, Josep i Jordi",carrer Ramon Turro,252,41.4021586,2.2061286,chemist
shop,chemist,pharmacy,,,,,pharmacy,"Farmàcia Oriol Carreras, Marina",carrer Llull,187,41.4012401,2.2023,chemist
shop,chemist,pharmacy,,,,,pharmacy,"Farmàcia Prats Genis, M. - Centellas Prats, M.",rambla Poblenou,46,41.4000842,2.2027304,chemist
shop,optician,,,,,,,Ester Optics,Rambla del Poblenou,48,41.4001253,2.2026593,optician
shop,chemist,pharmacy,,,,,pharmacy,"Farmàcia Teixidó González, M - González Roger, N",carrer Llull,269,41.4047252,2.2068807,chemist
shop,chemist,pharmacy,,,,,,"Farmàcia Pérez Fleitas, Dàcil",carrer Lope de Vega,123,41.4055342,2.2019129,chemist
shop,supermarket,,,,,,,Condis,,,41.4246854,2.1406086,supermarket
shop,supermarket,,,,,,,Superestalvi,Carrer de València,317,41.3965084,2.1682109,supermarket
shop,mobile_phone,,,,,,,Movistar,,,41.382107,2.1353988,mobile_phone
shop,hairdresser,,,,,,,Màrius Escoda,,,41.3812874,2.1356771,hairdresser
shop,doityourself,,,,,locksmith,,Ferreteria Diagonal,Carrer del Rosselló,290,41.3995841,2.1658976,doityourself
shop,supermarket,,,,,,,Caprabo,Carrer de Bailèn,161-163,41.400339,2.1658744,supermarket
shop,frozen_food,,,,,,,La Sirena,Passeig de Sant Joan,119,41.4003213,2.1678932,frozen_food
shop,supermarket,,,,,,,Caprabo,Carrer d'Aragó,313-317,41.395533,2.1689106,supermarket
shop,electronics,,,,,,,Miró,,,41.3956105,2.1690258,electronics
shop,deli,,,,,,,Can Ravell,,,41.3957961,2.1693881,deli
shop,deli,,,,,,,Tokyo Ya,Carrer de Girona,119,41.3970754,2.1679535,deli
shop,vacant,,,,,,,,Carrer d'Olzinelles,102,41.3707355,2.1374103,vacant
shop,florist,,,,,,,Floristeria El Jardí d'en Pep,Carrer de Viladomat,293,41.3884911,2.1454284,florist
shop,bakery,,,,,,,Levaduramadre,Carrer de Viladomat,293,41.3883968,2.1455452,bakery
shop,shoes,,,,,,,Oulet Joanola,Carrer de Provença,154,41.3877781,2.1524787,shoes
shop,kiosk,,,,,,,El Periódico,,,41.3899132,2.1459315,kiosk
shop,hairdresser,,,,,,,Marce cia perruqueria,,,41.3894077,2.1467759,hairdresser
shop,convenience,,,,,,,Cèlia & Celíacs,,,41.389347,2.1468657,convenience
shop,supermarket,,,,,,,Jespac,,,41.4044821,2.1372386,supermarket
shop,bakery,,,,,,,Catafal,,,41.4051179,2.1375846,bakery
shop,convenience,,,,,,,,,,41.3848985,2.1849288,convenience
shop,supermarket,,,,,,,Supermercat,,,41.4067026,2.1516985,supermarket
shop,supermarket,,,,,,,Mercadona,,,41.3958643,2.1504147,supermarket
shop,household_linen,,,,,,,Facil mobel,Plaça de Gal·la Placídia,22,41.399711,2.152768,household_linen
shop,bakery,,,,,,,Bopan,Travessera de Gracia,64,41.3964716,2.1503823,bakery
shop,bakery,,,,,,,Cafe au Lait,Carrer d'Aribau,,41.3971292,2.1482719,bakery
shop,supermarket,,,,,,,Consum,Carrer de Marià Cubí,74-70,41.3978028,2.1487988,supermarket
shop,clothes,,,,,,,Mango,Rambla de Catalunya,90,41.3930901,2.1609411,clothes
shop,hairdresser,,,,,,,,,,41.4289381,2.1827039,hairdresser
shop,supermarket,,,,,,,Lidl,,,41.428821,2.1819404,supermarket
shop,car_repair,,,,,,,,,,41.4291187,2.1824125,car_repair
shop,supermarket,,,,,,,,,,41.4288231,2.1833245,supermarket
shop,supermarket,,,,,,,,,,41.4361126,2.1728576,supermarket
shop,gift,,,,,,,Campio Trofeus Esportius,CarRoc Boronat,70,41.4003167,2.1979282,gift
shop,convenience,,,,,,,Queviures Carulla,Carrer de Gustavo Bécquer,51,41.4148554,2.1434117,convenience
shop,bicycle,,,,,,,Barceloneta bikes,,,41.379846,2.1898557,bicycle
shop,food,,,,,,,Les Trementinaires del Coll-Vallcarca,Carrer de l'Aldea,8,41.4181502,2.150029,food
shop,supermarket,,,,,,,Spar,Carretera de Collblanc,68-66,41.3758729,2.1176401,supermarket
shop,bakery,,,,,,,Fornet de les delícies,,,41.3769201,2.1166374,bakery
shop,laundry,,,,,,,,,,41.3906261,2.1980355,laundry
shop,supermarket,,,,,,,Consum,Avinguda d'Icària,160,41.390608,2.1977378,supermarket
shop,convenience,,,,,,,Supermercat,Carrer de l'Arquitecte Sert,,41.3909239,2.1987775,convenience
shop,supermarket,,,,,,,Sorli Discau,Carrer de la Marina,63,41.3915206,2.1907387,supermarket
shop,hairdresser,,,,,,,,,,41.3916614,2.1914361,hairdresser
shop,supermarket,,,,,,,Caprabo,,,41.3919204,2.1895606,supermarket
shop,supermarket,,,,,,,Consum,Avinguda de Roma,"32, 34",41.3816843,2.1466223,supermarket
shop,bakery,,,,,,,Forn del Noddy,,,41.3815102,2.1463652,bakery
shop,greengrocer,,,,,,,Fruit Xtra,,,41.3815972,2.1464862,greengrocer
shop,frozen_food,,,,,,,La Sirena,,,41.3817792,2.1476148,frozen_food
shop,hardware,,,,,,,Würth,,,41.3796837,2.1485533,hardware
shop,variety_store,,,,,,,Super Bazar,,,41.3808995,2.1449668,variety_store
shop,hairdresser,,,,,,,Victoria Miguel,,,41.3807535,2.1444698,hairdresser
shop,clothes,,,,,,,Mahalo,,,41.4038995,2.155694,clothes
shop,bakery,,,,,,,Pasticceria di Gracia,Carrer de Verdi,58,41.4047098,2.1559949,bakery
shop,gift,,,,,,,Olokuti,Carrer d'Astúries,"36,38",41.4035633,2.1547404,gift
shop,books,,,,,,,Maite,,,41.4000214,2.1520501,books
shop,supermarket,,,,,,,Condis,,,41.3835125,2.1536098,supermarket
shop,hairdresser,,,,,,,Noelia Miro,Carrer de Viladomat,183,41.3831824,2.1525265,hairdresser
shop,bakery,,,,,,,Panet,,,41.3819275,2.1511501,bakery
shop,supermarket,,,,,,,Mercadona,Carrer de Calàbria,129,41.3808618,2.1533419,supermarket
shop,kiosk,,,,,,,,,,41.3837883,2.1516839,kiosk
shop,convenience,,,,,,,Camadi,,,41.3808116,2.1533942,convenience
shop,car_repair,,,,,,,Opel,,,41.3800588,2.1562601,car_repair
shop,hairdresser,,,,,,,Llongueras,,,41.395024,2.1431707,hairdresser
shop,supermarket,,,,,,,Bonpreu,Passeig de Valldaura,148,41.4390594,2.1654032,supermarket
shop,convenience,,,,,,,,,,41.3759433,2.1721951,convenience
shop,supermarket,,,,,,,Consum,,,41.4359231,2.1742348,supermarket
shop,supermarket,,,,,,,Caprabo,,,41.4376808,2.173662,supermarket
shop,supermarket,,,,,,,Condis,Carrer de la Riera de Tena,19,41.3712408,2.1335234,supermarket
shop,car,,,,,,,Ferrari,,,41.3515714,2.1458954,car
shop,copyshop,,,,,,,Alfambra,,,41.3863429,2.1124022,copyshop
shop,stationery,,,,,,,Alfambra,,,41.3866614,2.1126264,stationery
shop,supermarket,,,,,,,Badul-a-que,Carrer de Jordi Girona,16,41.3873877,2.1137462,supermarket
shop,bakery,,,,,,,Macxi Pa,,,41.3871992,2.113051,bakery
shop,supermarket,,,,,,,Alimentació Pons,,,41.3867813,2.1125752,supermarket
shop,supermarket,,,,,,,Condis,,,41.3864706,2.1133869,supermarket
shop,books,,,,,,,Copiservei,Llacuna,123,41.4046436,2.1944581,books
shop,supermarket,,,,,,,Mercadona,Carrer de València,531-533,41.4065935,2.1816279,supermarket
shop,florist,,,,,,,Ikebana,,,41.4051302,2.1952659,florist
shop,massage,,,,,,,Lunala Thai Massage,,,41.4033023,2.1979634,massage
shop,kiosk,,,,,,,,,,41.4055677,2.1949217,kiosk
shop,supermarket,,,,,,,Condis,,,41.4036886,2.1982691,supermarket
shop,supermarket,,,,,,,Keisy,,,41.4058919,2.1946588,supermarket
shop,supermarket,,,,,,,Carrefour,,,41.405634,2.1917031,supermarket
shop,hairdresser,,,,,,,,,,41.4074466,2.1805634,hairdresser
shop,convenience,,,,,,,Mister 100,,,41.4076377,2.180837,convenience
shop,variety_store,,,,,,,La vida,,,41.4181845,2.1888835,variety_store
shop,car_repair,,,,,,,Renault,carrer de Venero,13,41.4015756,2.2015835,car_repair
shop,bakery,,,,,,,Cruixent,,,41.4018412,2.2007225,bakery
shop,greengrocer,,,,,,,El manduxot,,,41.4019136,2.2008137,greengrocer
shop,supermarket,,,,,,,Dia,Avinguda de Madrid,5,41.3760043,2.1229782,supermarket
shop,supermarket,,,,,,,Caprabo,Avinguda de Madrid,5-7,41.3761001,2.1231318,supermarket
shop,supermarket,,,,,,,Condis,Carrer del Bruc,166-168,41.3988525,2.1636995,supermarket
shop,bakery,,,,,,,Forn Artesà,Plaça de Tetuan,33,41.3956355,2.1760801,bakery
shop,alcohol,,,,,,,La Bona Pinta,Carrer de la Diputació,433,41.3994551,2.1787094,alcohol
shop,computer,,,,,,,Green Megastore,,178,41.3832028,2.1627895,computer
shop,computer,,,,,,,P.C. Green,Ronda Sant Antoni,172,41.3829989,2.1625014,computer
shop,electronics,,,,,,,MediaMarkt,Carrer de Casanova,2,41.3822657,2.1632822,electronics
shop,alcohol,,,,,,,VINUS & BRINDIS Balmes,,,41.4021105,2.1457063,alcohol
shop,alcohol,,,,,,,VINUS & BRINDIS L'Illa,,,41.3900364,2.1360841,alcohol
shop,books,,,,,,,Gabinete de Traducciones Juradas,,,41.3800112,2.1529759,books
shop,car_repair,,,,,,,R. Garcia,,,41.3800481,2.1530311,car_repair
shop,department_store,,,,,,,Vorwerk Thermomix Feelina,,,41.3802904,2.1533732,department_store
shop,department_store,,,,,,,Dorven,,,41.3801058,2.1531103,department_store
shop,books,,,,,,,Llibreria Aldarull,Carrer del Torrent de l'Olla,72,41.4005971,2.159268,books
shop,supermarket,,,,,,,Jespac Supermercats,Carrer de Muntaner,187,41.3927327,2.1511903,supermarket
shop,bakery,,,,,,,Forn de Pa Artesà,Carrer Sagués / Carrer Marià Cubi,,41.3948554,2.1440083,bakery
shop,bakery,,,,,,,La Boulangerie,,,41.3956343,2.1441661,bakery
shop,bakery,,,,,,,Pa de Kilo,Carrer del Doctor Dou,12,41.3828354,2.1686987,bakery
shop,bicycle,,,,,,,Espaibici,Carrer del Bruc,63,41.3936167,2.1702251,bicycle
shop,supermarket,,,,,,,Bonpreu,Plaça del Doctor Letemendi,36,41.3888337,2.161438,supermarket
shop,bakery,cafe,,,,,,365 Cafeteria Forn de Pa,Avinguda de Madrid,1,41.3758326,2.1226879,bakery
shop,supermarket,,,,,,,Mercadona,Passatge de Torné,1-13,41.4490455,2.1920367,supermarket
shop,supermarket,,,,,,,Pozo,Carrer del Turó de la Trinitat,71,41.4515556,2.1908284,supermarket
shop,tobacco,,,,,,,Estanco,Carrer de la Mare de Déu de Lorda,,41.4508362,2.1915442,tobacco
shop,supermarket,,,,,,,Condis,Carrer de les Camèlies,"43,45",41.412063,2.1607601,supermarket
shop,supermarket,,,,,,,Dia,Carrer de Pau Alsina,64,41.4094587,2.1631237,supermarket
shop,supermarket,,,,,,,Caprabo,Carrer de la Providència,"168,170,172",41.410011,2.1632524,supermarket
shop,supermarket,,,,,,,Condis,Carrer de Pau Alsina,65,41.4095087,2.1628635,supermarket
shop,supermarket,,,,,,,Condis,,,41.3742726,2.1581681,supermarket
shop,variety_store,,,,,,,casaLandia,Carrer de Viladomat,271-273,41.3874677,2.1467989,variety_store
shop,bicycle,,,,,,,Cicles Biela,Avinguda Diagonal,322,41.4007943,2.1755824,bicycle
shop,watches,,,,,,,,Carrer de València,186,41.3877446,2.1569524,watches
shop,bakery,,,,,,,Boldú,Carrer de Móra d'Ebre,64,41.4178039,2.14894,bakery
shop,supermarket,,,,,,,Super Vallcarca,Carrer de Móra d'Ebre,66,41.4179507,2.1490232,supermarket
shop,doityourself,,,,,,,Ferreteria Segurvi,Carrer del Santuari,2,41.4202718,2.1493236,doityourself
shop,convenience,,,,,,,"El Argentino - Xarcuteria, Vins i Caves",Carrer del Santuari,6,41.4202617,2.1494523,convenience
shop,bakery,,,,,,,Boldú,Passeig de la Mare de Déu del Coll,146,41.4201143,2.1491364,bakery
shop,greengrocer,,,,,,,Fruit Sa2pe,Carrer de Móra d'Ebre,41,41.4180352,2.1488998,greengrocer
shop,butcher,,,,,,,Xarcuteria,Carrer de Móra d'Ebre,45,41.4181961,2.1489803,butcher
shop,seafood,,,,,,,Congelats,Carrer de Móra d'Ebre,41,41.4180875,2.1489239,seafood
shop,greengrocer,,,,,,,,,,41.4219569,2.1430069,greengrocer
shop,convenience,,,,,,,"Ali, minimarket",Carrer del Rector Ubach,,41.3979519,2.1434358,convenience
shop,vacant,,,,,,,,,,41.3835014,2.1837673,vacant
shop,outdoor,,,,,,,Intemperie,Carrer de Villarroel,184,41.390629,2.1498565,outdoor
shop,bakery,,,,,,,Iaia'Nita,Carrer del Concili de Trento,77,41.4133402,2.1951346,bakery
shop,supermarket,,,,,,,Condis,,,41.4349161,2.1697543,supermarket
shop,greengrocer,,,,,,,Frutas y Verduras Hnos. Castro,Passeig d'Urrutia,,41.4347377,2.1713314,greengrocer
shop,car,,,,,,,Seat Catalunya Motor,,,41.3387177,2.1415918,car
shop,car,,,,,,,Volkswagen Catalunyawagen,Carrer de la Lletra A,51,41.337583,2.1408633,car
shop,musical_instrument,,,,,luthier,,Guillem Gecubi ~ Luthier,Carrer de Sant Marc,19,41.4005858,2.1525182,musical_instrument
shop,clothes,,,,,,,Caché Caché,,,41.4304221,2.1761827,clothes
shop,bakery,,,,,,,Tanu,,,41.3813329,2.1356606,bakery
shop,supermarket,,,,,,,Open Super,,,41.3786081,2.142696,supermarket
shop,supermarket,,,,,,,Caprabo,,,41.4180731,2.1895967,supermarket
shop,bakery,,,,,,,Baluard,Carrer del Baluard,38,41.3800227,2.1888614,bakery
shop,bakery,,,,,,,Forn de la Vila,Carrer Ample,33,41.3805787,2.180002,bakery
shop,vacant,,,,,,,,Carrer de la Mercè,16,41.3798512,2.1801573,vacant
shop,bakery,,,,,,,Forn Mistral,Ronda de Sant Antoni,96,41.3846309,2.1641028,bakery
shop,convenience,,,,,,,Supermercat,Carrer de Roger de Llúria,134,41.3983371,2.1621336,convenience
shop,vacant,,,,,,,,Carrer de la Canuda,25,41.3847779,2.172183,vacant
shop,supermarket,,,,,,,Mercadona,,,41.3762564,2.149715,supermarket
shop,supermarket,,,,,,,Max Supermercat,,,41.3895216,2.1954414,supermarket
shop,supermarket,,,,,,,Superservis,Carrer d'Avinyó,11-13,41.3812389,2.1766523,supermarket
shop,confectionery,,,,,,,Papabubble,Carrer Ample,28,41.380486,2.1801467,confectionery
shop,supermarket,,,,,,,Kings 24h,,,41.3774886,2.1644506,supermarket
shop,bakery,cafe,,,,,,365 Obrador,Avinguda del Paral·lel,105,41.3752071,2.1635151,bakery
shop,bakery,,,,,,,Forn Enrich,Carrer del Rosselló,54,41.3859711,2.1477293,bakery
shop,motorcycle,,,,,,,A SAC!!!,Carrer del Rosselló,60,41.3861196,2.1479335,motorcycle
shop,convenience,,,,,,,Supermerkat Sial,La Rambla,4,41.3770961,2.1769392,convenience
shop,supermarket,,,,,,,Dia,Carrer Nou de la Rambla,16,41.3786743,2.1739648,supermarket
shop,convenience,,,,,,,Super R,,,41.3792258,2.1745549,convenience
shop,supermarket,,,,,,,Caprabo,,,41.4173464,2.1890428,supermarket
shop,vacant,,,,,,,,,,41.4035879,2.2134392,vacant
shop,convenience,,,,,,,Coaliment,,,41.4036898,2.149861,convenience
shop,doityourself,,,,,,,Cadena Els Tigres,,,41.4106854,2.1381335,doityourself
shop,supermarket,,,,,,,B.H.G Supermercat del Món,Carrer del Parlament,21,41.3763778,2.1622923,supermarket
shop,deli,,,,,,,G.H.B,,,41.3763387,2.1622362,deli
shop,supermarket,,,,,,,Consum,Carrer de Villarroel,15,41.3809156,2.1622763,supermarket
shop,supermarket,,,,,,,Suma,,,41.3835216,2.1626252,supermarket
shop,butcher,,,,,,,,,,41.3823132,2.1610508,butcher
shop,baby_goods,,,,,,,Mimat,,,41.3786893,2.1634714,baby_goods
shop,bakery,,,,,,,La Torrada,,,41.3932368,2.1936985,bakery
shop,greengrocer,,,,,,,,,,41.391953,2.190032,greengrocer
shop,stationery,,,,,,,,,,41.3921241,2.1898013,stationery
shop,supermarket,,,,,,,MercaNautic,Carrer del Parc,3,41.3773917,2.1786001,supermarket
shop,convenience,,,,,,,,,,41.3744834,2.1745728,convenience
shop,supermarket,,,,,,,Caprabo,,,41.3864754,2.1508192,supermarket
shop,convenience,,,,,,,,,,41.4108614,2.1484696,convenience
shop,convenience,,,,,,,,,,41.4113871,2.1498328,convenience
shop,convenience,,,,,,,,,,41.4115762,2.1502003,convenience
shop,supermarket,,,,,,,Luna,,,41.4106971,2.1467858,supermarket
shop,car_repair,,,,,,,Carglass,,,41.3912667,2.1461605,car_repair
shop,car,,,,,,,Mercedes-Benz,,,41.3903256,2.147145,car
shop,convenience,,,,,,,Almentacio A M Catala,,,41.3768388,2.1455746,convenience
shop,supermarket,,,,,,,Bonpreu,,,41.3772015,2.1593313,supermarket
shop,supermarket,,,,,,,Suma,,,41.3772317,2.1602594,supermarket
shop,convenience,,,,,,,AMFF Supermercats,,,41.3732231,2.1701995,convenience
shop,convenience,,,,,,,Saif Supermercat,,,41.3719409,2.1695075,convenience
shop,copyshop;books,,,,,,,copistetia nouhebron,,,41.4344301,2.1484245,copyshop;books
shop,fashion_accessories,,,,,,,Mosseg,,,41.3810636,2.1767474,fashion_accessories
shop,supermarket,,,,,,,Argenteria,,,41.3837836,2.1799953,supermarket
shop,supermarket,,,,,,,Coaliment,Via Laietana,15,41.3831846,2.1795195,supermarket
shop,supermarket,,,,,,,Supermercat Picasso,,,41.3848714,2.1797276,supermarket
shop,supermarket,,,,,,,,,,41.3862397,2.1650882,supermarket
shop,games,,,,,,,Kaburi,Passeig de Sant Joan,11,41.3924442,2.1783319,games
shop,games,,,,,,,Barnie,,,41.4310568,2.1574848,games
shop,games,,,,,,,PuzzleMania,Carrer de la Diputació,223;225,41.3871417,2.1625335,games
shop,supermarket,,,,,,,Lidl,,,41.392798,2.1884594,supermarket
shop,kiosk,ice_cream,,,,,,,,,41.3864307,2.1915528,kiosk
shop,clothes,,,,,,,"Confeccions ""El Rellotge""",Carrer del Comte Borrell,89,41.378925,2.1603541,clothes
shop,gift,,,,,,,,,,41.3675847,2.1693866,gift
shop,convenience,,,,,,,Alimentacion,,,41.4003612,2.1959358,convenience
shop,supermarket,,,,,,,Ametller Origen,Carrer de Craywinckel,24,41.4116901,2.1387655,supermarket
shop,bicycle,,,,,,,BikeShop,,,41.4017373,2.1199691,bicycle
shop,pastry,,,,,,,La Browneria,Carrer de Girona,114,41.3970016,2.1684021,pastry
shop,clothes,,,,,,,Furest,Avinguda de Pau Casals,3,41.3931051,2.1431925,clothes
shop,bicycle,,,,,,,ePTV-BikeBoard,Carrer de Ramon Turró,5-9,41.3908838,2.1906989,bicycle
shop,photo,,,,,,,Orlimarc,Carrer de Ramon Turró,5,41.3908148,2.1906004,photo
shop,hairdresser,,,,,,,Cazcarra,Carrer del Comte Borrell,230,41.3868746,2.1502995,hairdresser
shop,paint,,,,,,,Hempel,,,41.4004921,2.1834772,paint
shop,newsagent,,,,,,,,,,41.3994483,2.183425,newsagent
shop,hairdresser,,,,,,,,,,41.399496,2.183855,hairdresser
shop,hairdresser,,,,,,,,,,41.4003504,2.1841547,hairdresser
shop,books,,,,,,,La Ciutat Invisible,Riera d'Escuder,38,41.3758816,2.1320788,books
shop,bakery,,,,,,,Mr Pan,,,41.4164718,2.1878826,bakery
shop,bakery,,,,,,,Cuquis. Parlem de Pa,Carrer Lope de Vega,94,41.4043797,2.2038713,bakery
shop,laundry,,,,,,,Bugaderia Autoservei Lope de Vega,Carrer Lope de Vega,98,41.40443,2.2037496,laundry
shop,supermarket,,,,,,,Lidl,Carrer de Lope de Vega,112-114,41.4047978,2.2033032,supermarket
shop,convenience,,,,,,,,,,41.4037607,2.2042587,convenience
shop,vacant,,,,,,,,,,41.4007472,2.2048889,vacant
shop,supermarket,,,,,,,keisy,Carrer de València,490,41.4041684,2.1789166,supermarket
shop,electronics,,,,,,,Apple Store,Passeig de Gràcia,1,41.3879538,2.169488,electronics
shop,convenience,,,,,,,Forn de pa,,,41.4160038,2.1429882,convenience
shop,hairdresser,,,,,,,,,,41.4058214,2.1761782,hairdresser
shop,hairdresser,,,,,,,Barber Shop Estyle,Carrer de Mallorca,439,41.4054605,2.177889,hairdresser
shop,supermarket,,,,,,,Mercadona,Carrer del Consell de Cent,366,41.394526,2.1704485,supermarket
shop,computer,,,,,,,Diagonal Informàtica,Avinguda Diagonal,331,41.3987204,2.1693331,computer
shop,florist,,,,,,,Navarro,Carrer de València,,41.3961708,2.1682132,florist
shop,car_repair,,,,,,,Motrio,,,41.4184083,2.1847634,car_repair
shop,supermarket,,,,,,,Condis,,,41.417008,2.1839656,supermarket
shop,supermarket,,,,,,,Lidl,,,41.4175222,2.1841954,supermarket
shop,sports,,,,,,,Adidas,Carrer d'Avinyó,6,41.3815095,2.1760058,sports
shop,supermarket,,,,,,,Mercadona,,,41.383364,2.1397071,supermarket
shop,bakery,,,,,,,Turris,Carrer d'Aribau,158,41.392321,2.1543711,bakery
shop,bakery,,,,,,,Forn&coffee Masedy,,,41.3833924,2.1274302,bakery
shop,yes,,,,,,,,Carrer d'Aribau,32,41.3871184,2.1612966,yes
shop,supermarket,,,,,,,Mercadona,Carrer de Viladomat,275-285,41.3876396,2.1465409,supermarket
shop,supermarket,,,,,,,Catalunya Supermercat,,,41.3701514,2.1340233,supermarket
shop,supermarket,,,,,,,Condis,,,41.41648,2.1901456,supermarket
shop,supermarket,,,,,,,BonÀrea,,,41.4174986,2.1980156,supermarket
shop,greengrocer,,,,,,,Superverd,Carrer de Huelva,48,41.4162667,2.195009,greengrocer
shop,hardware,,,,,,,Ferreteria Luma,Carrer de Huelva,54,41.4165017,2.1952104,hardware
shop,supermarket,,,,,,,Dia,Carrer de Fluvià,,41.4159831,2.1948556,supermarket
shop,convenience,,,,,,,Supercor Exprés,Passeig de Sant Joan,138,41.4014755,2.1672056,convenience
shop,supermarket,,,,,,,Consum,Carrer del Rosselló,346,41.4028924,2.1702533,supermarket
shop,supermarket,,,,,,,Super Moyer,Carrer del Vinyar,26,41.4416172,2.1827397,supermarket
shop,stationery,,,,,,,PAPIROTECNIC S.L.,Carrer del Vinyar,34,41.442341,2.1830669,stationery
shop,supermarket,,,,,,,Supermercat SuperDragó,,,41.4391569,2.1821812,supermarket
shop,bakery,,,,,,,Forn de Pa MediaVilla,,,41.4386777,2.181135,bakery
shop,supermarket,,,,,,,Sorli Discau,,,41.4422592,2.1847634,supermarket
shop,supermarket,,,,,,,Condis,Carrer de Baltasar Gracián,3-7,41.4400902,2.1818189,supermarket
shop,optician,,,,,,,General Óptica,Carrer de Craywinckel,13,41.4118504,2.1392671,optician
shop,bakery,,,,,,,Santa Gloria,,,41.4116287,2.1386796,bakery
shop,butcher,,,,,,,Escolet Oliver,,,41.4116804,2.1390363,butcher
shop,books,,,,,,,Demos,Carrer de Craywinckel,25,41.4114959,2.1387762,books
shop,toys,,,,,,,Drim,,,41.4120268,2.1392085,toys
shop,hairdresser,,,,,,,Twenty One,,,41.3979532,2.1292884,hairdresser
shop,clothes,,,,,,,Lady Smock,,,41.3979576,2.1294834,clothes
shop,hairdresser,,,,,,,Raffel Pages,,,41.3975078,2.1280119,hairdresser
shop,stationery,,,,,,,Talens,Guardiola i Feliu,7,41.4388577,2.1890672,stationery
shop,supermarket,,,,,,,BonÀrea,,,41.3697062,2.1329222,supermarket
shop,sports,,,,,,,Esports,,,41.4107909,2.1382135,sports
shop,variety_store,,,,,,,Basar Oriental,,,41.4110122,2.1383513,variety_store
shop,bakery,,,,,,,La Farga,,,41.4111197,2.1383817,bakery
shop,beauty,,,,,,,Color Me Nails,,,41.4112078,2.1384082,beauty
shop,chemist,,,,,,,San Remo,,,41.4112497,2.1384275,chemist
shop,clothes,,,,,,,Tave,,,41.4114014,2.1386583,clothes
shop,gift,,,,,,,Tot Bonic,,,41.4114447,2.1387192,gift
shop,lottery,,,,,,,ONCE,,,41.4113859,2.1385817,lottery
shop,gift,,,,,,,Biba,Carrer de Craywinckel,25,41.411534,2.1388249,gift
shop,greengrocer,,,,,,,SuperVerd,Carrer de Craywinckel,15,41.4117902,2.1391746,greengrocer
shop,clothes,,,,,,,Suso,Carrer de Craywinckel,5,41.4120496,2.1395796,clothes
shop,alcohol,,,,,,,El Celleret,Carrer de Craywinckel,5,41.4120766,2.1396179,alcohol
shop,clothes,,,,,,,Sacco,Carrer de Craywinckel,3,41.4121457,2.1397234,clothes
shop,doityourself,,,,,,,Cadena 88,,,41.4125105,2.1396329,doityourself
shop,clothes,,,,,,,Nicole,,,41.412365,2.1397031,clothes
shop,optician,,,,,,,C4 Optics Sant Gervasi,Carrer de Craywinckel,4,41.4123439,2.1396766,optician
shop,beauty,,,,,,,Color Me Nails,,,41.4122594,2.1395562,beauty
shop,butcher,,,,,,,Cansaladeria Casadesus,,,41.3987747,2.1212275,butcher
shop,supermarket,,,,,,,BonÀrea,,,41.3974037,2.1217544,supermarket
shop,bakery,,,,,,,Granier,,,41.4033811,2.2031684,bakery
shop,frozen_food,,,,,,,La Sirena,Carrer del Concili de Trento,77,41.4134784,2.1953379,frozen_food
shop,telecommunication,,,,,,,Movistar,,,41.4066125,2.2076773,telecommunication
shop,supermarket,,,,,,,Alimentació La Torra,Carrer de Casanova,170,41.3910206,2.1516647,supermarket
shop,sports,,,,,,,Decathlon,Carrer de la Canuda,8-20,41.3847502,2.1726153,sports
shop,convenience,,,,,,,Supermercat,,,41.3934829,2.1569955,convenience
shop,pastry,,,,,,,Pastisseria Bareche,Carrer de Sant Antoni Maria Claret,484,41.4210839,2.1879238,pastry
shop,greengrocer,,,,,,,Frescuore,Carrer de Nàpols,113,41.3950131,2.1796065,greengrocer
shop,supermarket,,,,,,,Condis,Carrer dels Madrazo,88-86,41.3981285,2.1460844,supermarket
shop,supermarket,,,,,,,Caprabo,Carrer dels Madrazo,102,41.3971017,2.144769,supermarket
shop,mobile_phone,,,,,,,Orange,,,41.3858328,2.1764946,mobile_phone
shop,gift,,,,,,,Bó Bonic Barat,Carrer de les Cabres,14,41.3824965,2.1711339,gift
shop,convenience,,,,,,,Supermercat 24h,Gran Via de les Corts Catalanes,620,41.387818,2.1666076,convenience
shop,vacant,,,,,,,,Carrer de Ferlandina,55,41.3816896,2.164999,vacant
shop,butcher,,,,,,,La Blanche,,,41.3769247,2.168173,butcher
shop,vacant,,,,,,,Raíces y cultura,,,41.3847468,2.1786287,vacant
shop,mobile_phone,,,,,,,SE Mòbil,Carrer d'en Robador,19,41.3796952,2.1708179,mobile_phone
shop,erotic,,,,,,,Zeus X Shop,Riera Alta,20,41.380588,2.1659713,erotic
shop,doityourself,,,,,,,Family beer,Carrer de Joan Blanques,53,41.4061051,2.1594802,doityourself
shop,computer,,,,,,,Life Informática,,,41.403623,2.2026665,computer
shop,hairdresser,,,,,,,Rafel Pages,,,41.4035015,2.2033088,hairdresser
shop,seafood,,,,,,,L' anxoveta,Carrer de Pujades,236,41.4036578,2.2034945,seafood
shop,car,,,,,,,Modernmóvil,,,41.4038233,2.2037378,car
shop,gift,,,,,,,Nupur,,,41.4035545,2.202997,gift
shop,clothes,,,,,,,home i dona,,,41.4036009,2.2030413,clothes
shop,hardware,,,,,,,La Clau,Carrer de Pujades,233,41.4039925,2.2035749,hardware
shop,locksmith,,,,,,,Tecno-Key,Carrer de Pujades,233,41.4039707,2.2035448,locksmith
shop,beauty,,,,,,,Hi Beauty!,Carrer de Violant d'Hongria Reina d'Arago,93,41.3793466,2.1314493,beauty
shop,clothes,,,,,,,Botiga UB,Gran Via de les Corts Catalanes,585,41.3867966,2.1640306,clothes
shop,supermarket,,,,,,,Condis,,,41.4138765,2.1038653,supermarket
shop,car_repair,,,,,,,,Carrer de Tortellà,18,41.4034335,2.2089869,car_repair
shop,supermarket,,,,,,,Condis,,,41.4371158,2.2049224,supermarket
shop,supermarket,,,,,,,Sorli Discau,,,41.4368357,2.2042069,supermarket
shop,vacant,,,,,,,,,,41.4341709,2.202206,vacant
shop,travel_agency,,,,,,,Un Mundo de Cruceros,Carrer de Roger de Llúria,1,41.3897567,2.1730428,travel_agency
shop,travel_agency,,,,,,,TodoCruceros,Plaça Urquinaona,6,41.3896866,2.1730148,travel_agency
shop,supermarket,,,,,,,Carrefour Market,,,41.4200219,2.1962763,supermarket
shop,supermarket,,,,,,,rico,Rambla del Poblenou,100,41.4023159,2.1998443,supermarket
shop,clothes,,,,,,,Flamingos Vintage,Carrer dels Tallers,31,41.3847917,2.1684994,clothes
shop,beauty,,,,,,,LT W,,,41.3848005,2.1684426,beauty
shop,clothes,,,,,,,S3G,Carrer de Sants,57,41.375234,2.1378648,clothes
shop,clothes,,,,,,,Buddha Eyes,Carrer de Sants,64,41.3754637,2.1378263,clothes
shop,greengrocer,,,,,,,Veggie Mundo,Carrer de Bruniquer,"29,31",41.4048947,2.1608982,greengrocer
shop,dry_cleaning,,,,,,,Gràcia,,,41.4043499,2.1613719,dry_cleaning
shop,bakery,,,,,,,Ququía,Carrer de Ramón y Cajal,108,41.4041485,2.161252,bakery
shop,computer,,,,,,,BMS Mobile,Carrer de Mallorca,56,41.3836156,2.1490371,computer
shop,greengrocer,,,,,,,Gracia Frutes Verdures,,,41.4054118,2.1603436,greengrocer
shop,books,,,,,,,Arkham Comics,,,41.3836403,2.1697102,books
shop,shoes,,,,,,,Calzados Obach,Carrer dels Banys Nous,2,41.3819569,2.1754633,shoes
shop,stationery,,,,,,,Papereria J. Villena,Carrer dels Banys Nous,12,41.3823141,2.1750418,stationery
shop,convenience,,,,,,,M Market,Carrer dels Banys Nous,12,41.382366,2.1749893,convenience
shop,art,,,,,,,Art Escudellers,Carrer dels Banys Nous,14,41.3825406,2.174822,art
shop,clothes,,,,,,,Boogie shop,,,41.3831434,2.1683844,clothes
shop,jewelry,,,,,,,Vives de la Cortada,Carrer del Call,26,41.382355,2.176395,jewelry
shop,shoes,,,,,,,Soriano,Carrer del Call,15,41.3822865,2.1762061,shoes
shop,jewelry,,,,,,,Joid'art,Carrer del Call,18,41.3821597,2.176007,jewelry
shop,jewelry,,,,,,,Fills M.Sala,Carrer del Call,3-5,41.3820983,2.1756279,jewelry
shop,toys,,,,,,,Joguines Foyé,,,41.3822916,2.1748908,toys
shop,houseware,,,,,,,Ganiveteria Roca,Plaça del Pi,3,41.3824767,2.1735025,houseware
shop,mobile_phone,,,,,,,iPro,,,41.3827781,2.1713625,mobile_phone
shop,books,,,,,,,La Central del Raval,Carrer d'Elisabets,6,41.3836078,2.1688897,books
shop,clothes,,,,,,,Pull & Bear,,,41.3853695,2.1695429,clothes
shop,optician,,,,,,,Sunglass Hut,Carrer de Ferran,61,41.3824359,2.176699,optician
shop,furniture,,,,,,,Futon Llit,,,41.4021852,2.156358,furniture
shop,stationery,,,,,,,Alex,,,41.4034699,2.1543819,stationery
shop,clothes,,,,,,,Borsache,,,41.4054267,2.1632312,clothes
shop,clothes,,,,,,,Roger,,,41.4054829,2.1631799,clothes
shop,clothes,,,,,,,Magarvi,,,41.4055766,2.1631781,clothes
shop,clothes,,,,,,,Tommy Hilfiger,,,41.3897003,2.1673769,clothes
shop,clothes,,,,,,,Max Mara,Passeig de Gràcia,23,41.3904747,2.1664859,clothes
shop,clothes,,,,,,,Kenzo,Passeig de Gràcia,33,41.3909048,2.1659455,clothes
shop,clothes,,,,,,,Loewe,Passeig de Gràcia,35,41.3912417,2.1654846,clothes
shop,cosmetics,,,,,,,Sephora,Passeig de Gràcia,37,41.3913338,2.1653724,cosmetics
shop,jewelry,,,,,,,,,,41.4033272,2.1596715,jewelry
shop,supermarket,,,,,,,Condis,,,41.4040048,2.1595218,supermarket
shop,houseware,,,,,,,Hiper 100,,,41.4022452,2.1716981,houseware
shop,car,,,,,,,Citroën,,,41.4006647,2.1691708,car
shop,car_repair,,,,,,,Tallers Verds,,,41.403951,2.1604077,car_repair
shop,hairdresser,,,,,,,Josep Maria Forn,,,41.4031329,2.1724085,hairdresser
shop,clothes,,,,,,,Jordi,,,41.4029303,2.1720766,clothes
shop,supermarket,,,,,,,Caprabo,,,41.4023821,2.1714302,supermarket
shop,pet_grooming,veterinary,,,,,,Lovedogs,,,41.4014964,2.1702563,pet_grooming
shop,hairdresser,,,,,,,Francisco Moreno,,,41.3997534,2.1685285,hairdresser
shop,convenience,,,,,,,D&D,,,41.4008813,2.1694222,convenience
shop,car_repair,,,,,,,Motos Ratera,,,41.4033832,2.1647935,car_repair
shop,convenience,,,,,,,Alimentació,Travessera de Gràcia,,41.4043262,2.1623941,convenience
shop,clothes,,,,,,,Highway 61 Revisited,Carrer de Joan Blanques,"22,24",41.4051021,2.1606627,clothes
shop,motorcycle_repair,,,,,,,Desmomoto,Passeig de Sant Joan,163,41.40229,2.1652466,motorcycle_repair
shop,clothes,,,,,,,Aguilera,,,41.4032769,2.172615,clothes
shop,dog_wash,,,,,,,Lovedogs,,,41.4019079,2.1705022,dog_wash
shop,greengrocer,,,,,,,Area Fresca,,,41.401338,2.1700718,greengrocer
shop,houseware,,,,,,,Parquet's Uriol,,,41.4005888,2.1691317,houseware
shop,houseware,,,,,,,Original,,,41.4005624,2.1690376,houseware
shop,general,,,,,,,,,,41.4007106,2.1672657,general
shop,supermarket,,,,,,,Dia Market,,,41.4040084,2.1622868,supermarket
shop,cosmetics,,,,,,,Luxury,Carrer Gran de Gràcia,164,41.4023676,2.1528387,cosmetics
shop,shoes,,,,,,,Redlove,,,41.4023286,2.1528697,shoes
shop,clothes,,,,,,,Calendula,,,41.4041963,2.1568024,clothes
shop,alcohol,,,,,,,Sol de Gràcia,Carrer dels Xiquets de Valls,,41.4012821,2.1566553,alcohol
shop,laundry,,,,,,,Laundry Orange,,,41.4018783,2.1568845,laundry
shop,supermarket,,,,,,,Condis Exprés,,,41.4018251,2.1546703,supermarket
shop,telecommunication,,,,,,,Orange,,,41.4014525,2.1536925,telecommunication
shop,clothes,,,,,,,Calzedonia,Carrer Gran de Gràcia,124,41.4013615,2.1537846,clothes
shop,toys,,,,,,,The Route of the Orient Express,,,41.4015577,2.1535781,toys
shop,chemist,,,,,,,Primaprix,,,41.4016018,2.153249,chemist
shop,cosmetics,,,,,,,Yves Rocher,,,41.3835638,2.1731883,cosmetics
shop,cosmetics,,,,,,,MiiN,,,41.3831952,2.1723146,cosmetics
shop,kiosk,,,,,,,,,,41.3805339,2.1738148,kiosk
shop,cannabis,,,,,,,Marry Jane,,,41.3799872,2.1739848,cannabis
shop,kiosk,,,,,,,Lizarran,,,41.3768133,2.1766682,kiosk
shop,convenience,,,,,,,Supermercat,,,41.3824684,2.1857241,convenience
shop,houseware,,,,,,,muy mucho,,,41.3833517,2.1723218,houseware
shop,convenience,,,,,,,Asian Super Store,,,41.3802203,2.169934,convenience
shop,butcher,,,,,,,Carniceria Islamica,,,41.3804475,2.1723631,butcher
shop,kiosk,restaurant,,,,,,Lizarran,,,41.3794472,2.1747059,kiosk
shop,supermarket,,,,,,,Fruites I Verdures,,,41.3991782,2.2035839,supermarket
shop,department_store,,,,,,,Galaxia,,,41.3993411,2.2037098,department_store
shop,confectionery,,,,,,,Pastisseria Santa Clara,Carrer de la Llibreteria,21,41.3834314,2.1775567,confectionery
shop,laundry,,,,,,,els 60,Carrer de Provença,60,41.3833168,2.1465321,laundry
shop,houseware,,,,,,,Tedi,Carrer de Manso,10,41.3756747,2.1594777,houseware
shop,supermarket,,,,,,,Marcel Herrero Fruteria,Carrer de Calàbria,17,41.3758337,2.1597432,supermarket
shop,herbalist,,,,,,,La Deessa del Bosc,Carrer de Manso,34,41.3765697,2.1606088,herbalist
shop,frozen_food,,,,,,,La Sirena,,,41.3762765,2.1602502,frozen_food
shop,bakery,,,,,,,Fleca Balmes,,,41.3945387,2.1559287,bakery
shop,supermarket,,,,,,,Sorli Discau,,,41.4201316,2.187446,supermarket
shop,supermarket,,,,,,,Consum,Avinguda de la Mare de Déu de Montserrat,19-21,41.413988,2.1617533,supermarket
shop,newsagent,,,,,,,,,,41.4154276,2.1974666,newsagent
shop,kiosk,,,,,,,,,,41.4147788,2.1966794,kiosk
shop,greengrocer,,,,,,,,,,41.4152255,2.1609084,greengrocer
shop,butcher,,,,,,,,,,41.415316,2.1628503,butcher
shop,seafood,,,,,,,Peix i marisc J. Cala,,,41.4145356,2.1610854,seafood
shop,greengrocer,,,,,,,Almendras,,,41.4138959,2.1620483,greengrocer
shop,greengrocer,,,,,,,Ping Ping,,,41.4144531,2.1630408,greengrocer
shop,bakery,,,,,,,Rabassa,Carrer de Rabassa,5,41.4069631,2.1586352,bakery
shop,greengrocer,,,,,,,,,,41.4070824,2.1592501,greengrocer
shop,sewing,,,,,,,Mercería,Carrer de les Tres Senyores,40,41.4068152,2.158893,sewing
shop,jewelry,,,,,,,,,,41.4076943,2.1608106,jewelry
shop,hardware,,,,,,,Ferreteria Electro Europa - Optimus,Carrer de l'Escorial,35,41.4075397,2.1608766,hardware
shop,chemist,,,,,,,La Balear,Carrer de l'Escorial,41,41.4077688,2.1607167,chemist
shop,beauty,,,,,,,Rikka,,,41.4072307,2.1614944,beauty
shop,greengrocer,,,,,,,MARC BONA FRUITA I VERDURA,,,41.4072779,2.1615746,greengrocer
shop,supermarket,,,,,,,Caprabo,,,41.4074359,2.1618264,supermarket
shop,bicycle,,,,,,,Shah e-bike,,,41.4073129,2.1616289,bicycle
shop,wine,,,,,,,Barcelona Vinos,Carrer de les Tres Senyores,50,41.4070483,2.1591889,wine
shop,greengrocer,,,,,,,Cal Fruitós,Carrer de la Providència,69,41.4078174,2.1586803,greengrocer
shop,greengrocer,,,,,,,Sa2Pe,Carrer de la Providència,,41.4070939,2.1577018,greengrocer
shop,pastry,,,,,,,Bonet,Carrer de la Providència,69,41.4078582,2.1587696,pastry
shop,car_repair,,,,,,,,,,41.4067881,2.1580559,car_repair
shop,pasta,,,,,pasta,,La Chitarra,Carrer de Joan Blanques,56,41.406179,2.1595822,pasta
shop,art,,,,,,,Atelier Sala de Arte,Plaça de Rovira i Trias,9,41.4077216,2.158219,art
shop,bakery,,,,,,,Forn de pa Providència,Carrer de la Providència,59,41.4071603,2.1576482,bakery
shop,doityourself,,,,,,,Printhatshit,Carrer de Papin,26,41.378011,2.1331685,doityourself
shop,car_repair,,,,,,,Tallers Navarri,Carrer de Cerdanyola,37B,41.377309,2.1330217,car_repair
shop,supermarket,,,,,,,Caprabo,,,41.4220714,2.1811472,supermarket
shop,supermarket,,,,,,,Caprabo,,,41.4221319,2.1850064,supermarket
shop,newsagent,,,,,,,,,,41.4220061,2.1849499,newsagent
shop,gift,,,,,,,I Love Barcelona,La Rambla,73,41.3811229,2.1730472,gift
shop,kiosk,,,,,,,,,,41.4205484,2.1809104,kiosk
shop,hairdresser,,,,,,,,,,41.406795,2.1587478,hairdresser
shop,chemist,pharmacy,,,,,pharmacy,"Farmàcia Plana Mendo, Joan Josep",carrer Lope de Vega,282,41.4122977,2.1933087,chemist
shop,supermarket,,,,,,,Consum,,,41.4119453,2.160447,supermarket
shop,clothes,,,,,,,Moncusí,Carrer de Santaló,"47,49",41.3964283,2.144716,clothes
shop,convenience,,,,,,,,,,41.4149925,2.1612029,convenience
shop,alcohol,,,,,,,Verema i Collita,Plaça d'en Joanic,1,41.4050824,2.1624559,alcohol
shop,bakery,,,,,,,Lliso Lis,,,41.414375,2.1627666,bakery
shop,jewelry,,,,,,,Van-der,Avinguda de la Mare de Déu de Montserrat,20,41.4136528,2.1615194,jewelry
shop,greengrocer,,,,,,,,,,41.4136162,2.163527,greengrocer
shop,kiosk,,,,,,,El periodico,,,41.4187838,2.189196,kiosk
shop,supermarket,,,,,,,Consum,Carrer del Comte d'Urgell,87,41.3835203,2.1564657,supermarket
shop,kiosk,,,,,,,,,,41.4116354,2.1987015,kiosk
shop,kiosk,,,,,,,,,,41.4128318,2.1971997,kiosk
shop,supermarket,,,,,,,Condis Express,,,41.4088125,2.1949826,supermarket
shop,bakery,cafe,,,,,,Forn de pa Gil,,,41.4089286,2.1951206,bakery
shop,supermarket,,,,,,,Dia,,,41.4143356,2.2005776,supermarket
shop,general,,,,,,,Casa bona,,,41.4031557,2.2033449,general
shop,kiosk,,,,,,,,,,41.3997857,2.2026204,kiosk
shop,kiosk,,,,,,,,,,41.4045744,2.199062,kiosk
shop,kiosk,,,,,,,,,,41.3989138,2.2037682,kiosk
shop,supermarket,,,,,,,Mercadona,,,41.4010293,2.2052715,supermarket
shop,shoes,,,,,,,Villarroya,Rambla del Poblenou,43,41.3999652,2.2025126,shoes
shop,newsagent,,,,,,,,,,41.4013897,2.2006002,newsagent
shop,pet,,,,,,,Kiwoko Mundo Animal,Rambla del Poblenou,50,41.4002178,2.2025911,pet
shop,confectionery,,,,,,,Triomf,Rambla del Poblenou,41,41.3995954,2.2028652,confectionery
shop,chemist,,,,,,,Clarel,Carrer de Rossend Nobas,29,41.4088068,2.1895824,chemist
shop,kiosk,,,,,,,Quiosc de Clot,,,41.4078884,2.1884107,kiosk
shop,pastry,,,,,,,La Palma,Carrer del Clot,72-74,41.4080655,2.1884404,pastry
shop,bakery,,,,,,,Mon Pa,Carrer del Clot,53,41.4077954,2.1880996,bakery
shop,coffee,cafe,,,,,,Syra Coffee,Carrer del Clot,49,41.4077666,2.1880914,coffee
shop,supermarket,,,,,,,Dia,Carrer de Rossend Nobas,27,41.408738,2.1894997,supermarket
shop,optician,,,,,,,Centre Òptic Alomar,,,41.411543,2.1895373,optician
shop,bakery,,,,,,,Bulka,Carrer del Coronel Sanfeliu,10,41.4068426,2.1884295,bakery
shop,tobacco,,,,,,,Paloma,Carrer del Clot,63,41.4081536,2.1882712,tobacco
shop,optician,,,,,,,Armand Òptics,,,41.4078348,2.1883176,optician
shop,beverages,,,,,,,Bodegas Riojanas,Carrer del Clot,139-141,41.4114686,2.1895144,beverages
shop,lottery,,,,,,,,,,41.4128186,2.1899136,lottery
shop,confectionery,,,,,,,Figuls,,,41.412857,2.1898469,confectionery
shop,seafood,,,,,,,Genaro,Carrer de Las Navas de Tolosa,253,41.4129436,2.1897943,seafood
shop,supermarket,,,,,,,,Gran Via de les Corts Catalanes,341-345,41.3734372,2.1465907,supermarket
shop,bakery,cafe,,,,,,Forn Baltà,Sants,119,41.3752817,2.134593,bakery
shop,bakery,,,,,,,MacxiPa,,,41.3692485,2.1331072,bakery
shop,vacant,,,,,,,,Passeig de Gràcia,55,41.392516,2.1639302,vacant
shop,clothes,,,,,,,The North Face,Rambla de Catalunya,121,41.3946808,2.1582509,clothes
shop,clothes,,,,,,,Urban Outfitters,,,41.3862181,2.1691458,clothes
shop,florist,,,,,,,Olimpia,,,41.3760615,2.1662529,florist
shop,chemist,,,,,,,Helena,,,41.3761273,2.1662344,chemist
shop,sports,,,,,,,Spor Nuria,,,41.3762277,2.1660784,sports
shop,mobile_phone,,,,,,,Shani Mòbils,,,41.3761537,2.16618,mobile_phone
shop,sports,,,,,,,futbol mania,,,41.3762558,2.1660438,sports
shop,books,,,,,,,Dismar,,,41.3763225,2.165908,books
shop,supermarket,,,,,,,Consum,,,41.3763656,2.1658428,supermarket
shop,jewelry,,,,,,,Rellotgeria López,,,41.3764839,2.1656952,jewelry
shop,deli,,,,,,,,,,41.3765824,2.1654613,deli
shop,convenience,,,,,,,Veganoteca,Carrer de Valldonzella,60,41.3828554,2.1642185,convenience
shop,bed,,,,,,,La matalasseria,,,41.3743946,2.1671753,bed
shop,ticket,,,,,,,Camp Nou Experience,,,41.3804287,2.1204072,ticket
shop,tobacco,,,,,,,Tabacs,,,41.3798752,2.1404525,tobacco
shop,clothes,,,,,,,Calzedonia,,,41.3796889,2.1401828,clothes
shop,supermarket,,,,,,,Jaime Renobell,Passeig de Picasso,34,41.3862387,2.1845656,supermarket
shop,doityourself,,,,,,,Leroy Merlin,Paseo Portesí,2,41.4412809,2.1989235,doityourself
shop,clothes,,,,,,,Zara,,,41.4101876,2.2165553,clothes
shop,clothes,,,,,,,Mango,,,41.4101704,2.2169821,clothes
shop,clothes,,,,,,,Lacoste,,,41.4096068,2.2159237,clothes
shop,clothes,,,,,,,Bershka,,,41.4096924,2.2152902,clothes
shop,clothes,,,,,,,Primark,,,41.4103119,2.2179441,clothes
shop,clothes,,,,,,,Stradivarius,,,41.4101991,2.2170736,clothes
shop,cosmetics,,,,,,,Druni,,,41.4101482,2.2170214,cosmetics
shop,sports,,,,,,,Forum Sport,,,41.4100035,2.2175776,sports
shop,clothes,,,,,,,Levi's,,,41.4099013,2.2158279,clothes
shop,clothes,,,,,,,Macson,,,41.4100502,2.2176996,clothes
shop,jewelry,,,,,,,Swarovski,,,41.4098986,2.2171369,jewelry
shop,florist,,,,,,,Floristeria Navarro,Carrer de València,320,41.3953873,2.1670958,florist
shop,supermarket,,,,,,,Mercadona,,,41.3930166,2.1858405,supermarket
shop,supermarket,,,,,,,Sorli Discau,Carrer de Nàpols,10,41.391263,2.1850318,supermarket
shop,supermarket,,,,,,,Condis,carrer Llança,,41.3796399,2.1462933,supermarket
shop,wine,,,,,,,Cosme Vins Licors i Cava,Carrer d'Aribau,,41.3985624,2.1467132,wine
shop,tea,,,,,,,SienTé,Carrer de Rogent,96,41.410715,2.1827948,tea
shop,bakery,,,,,,,,,,41.429919,2.14341,bakery
shop,deli,,,,,,,Colmado Quilez,Rambla de Catalunya,65,41.3912063,2.1629817,deli
shop,fabric,,,,,,,Magatzems del Pilar,,,41.381746,2.1750994,fabric
shop,gift,,,,,,,Conesa,Carrer de Petritxol,10,41.3827906,2.1730563,gift
shop,fabric,,,,,,,Ribes & Casals,Carrer de Roger de Llúria,7,41.3901464,2.1725712,fabric
shop,jewelry,,,,,,,Joyería Miralles,Carrer de Bailèn,,41.4035026,2.1616785,jewelry
shop,bikes,,,,,,,Ajo bike,Carrer d'en Roig,5,41.3804246,2.1688259,bikes
shop,clothes,,,,,,,Macson,Avinguda Diagonal,413,41.3949451,2.1542344,clothes
shop,beauty,,,,,,,Estética Duende,Carrer del Doctor Zamenhof,5-7,41.4160078,2.1957837,beauty
shop,kiosk,,,,,,,,,,41.3755934,2.1359545,kiosk
shop,beverages,,,,,,,Cerveza Artesana,Carrer de Vila i Vilà,73,41.37411,2.1686605,beverages
shop,gift,,,,,,,Angels,,,41.3934652,2.1779209,gift
shop,supermarket,,,,,,,Condis,Carrer del Torrent de l'Olla,220,41.4063688,2.1525491,supermarket
shop,optician,,,,,,,Oliver,Carrer de la Creu Coberta,97,41.3751167,2.143019,optician
shop,tobacco,,,,,,,Estanc,,,41.3751125,2.1430808,tobacco
shop,outdoor,,,,,,,Barrabes,,,41.3945539,2.1667501,outdoor
shop,kiosk,,,,,,,,,,41.3871925,2.168331,kiosk
shop,books,,,,,,,Jaimes,Carrer de València,318,41.3953051,2.1670305,books
shop,kiosk,,,,,,,,,,41.3856589,2.1695682,kiosk
shop,kiosk,,,,,,,,,,41.3839618,2.1789276,kiosk
shop,supermarket,,,,,,,Mercadona,,,41.4174459,2.1874012,supermarket
shop,kiosk,,,,,,,,,,41.4223598,2.1790817,kiosk
shop,supermarket,,,,,,,Condis,,,41.4124231,2.1382004,supermarket
shop,supermarket,,,,,,,Condis,,,41.4129421,2.1390855,supermarket
shop,pastry,,,,,,,Chök,Carrer del Carme,3,41.3827589,2.1713106,pastry
shop,bakery,,,,,,,Forn de pastes,Carrer de Pau Claris,80,41.3894098,2.1717886,bakery
shop,supermarket,,,,,,,Super Fresc Supermercat,Carrer dels Gegants,4,41.381459,2.1774271,supermarket
shop,kiosk,,,,,,,News & Coffee,,,41.4002641,2.1573332,kiosk
shop,seafood,,,,,,,Peixos Ricard,,,41.4091424,2.1854284,seafood
shop,supermarket,,,,,,,Condis,,,41.4027825,2.2034307,supermarket
shop,vacant,,,,,,,,Avinguda Diagonal,520,41.3951555,2.1527838,vacant
shop,supermarket,,,,,,,Komesano,Carrer del Baluard,28,41.3805162,2.1886893,supermarket
shop,kiosk,,,,,,,,,,41.4386316,2.1475002,kiosk
shop,rental,,,,,,,Sup Spot,Plaça del Mar,1-4,41.3754419,2.1899321,rental
shop,jewelry,,,,,,,Naobi Joiers,Carrer de Gelabert,25,41.388569,2.1427609,jewelry
shop,bakery,restaurant,,,,,,Paul,Carrer d'Alfambra,,41.3869942,2.11253,bakery
shop,hairdresser,,,,,,,Joani unisex,Passatge de Llívia,37,41.4195106,2.1776525,hairdresser
shop,bakery,,,,,,,iaia 'nita,Carrer de Bilbao,208,41.4108993,2.1928895,bakery
shop,shoes,,,,,,,Calçat Andrea,Carrer Gran de Sant Andreu,105,41.4306588,2.1894382,shoes
shop,shoes,,,,,,,Christian Loubotin,Passeig de Gràcia,97,41.3952824,2.1605757,shoes
shop,sports,,,,,,,Rollergrind 360,Carrer de Lope de Vega,10-12,41.4016229,2.2075439,sports
shop,newsagent,,,,,,,,,,41.3973711,2.183258,newsagent
shop,greengrocer,,,,,,,Fruits Dador,Carrer de Casp,137,41.3972239,2.1809844,greengrocer
shop,herbalist,,,,,,,L'Herbolari de Casp,,,41.3974534,2.1810165,herbalist
shop,motorcycle,,,,,,,Taulè,,,41.3979556,2.1801478,motorcycle
shop,bicycle,,,,,,,City00,Carrer de Sant Pere Màrtir,15,41.3992063,2.1575515,bicycle
shop,bakery,,,,,,,Maxci Pan,,,41.4002923,2.1458497,bakery
shop,supermarket,,,,,,,Spar,,,41.4040266,2.156774,supermarket
shop,supermarket,,,,,,,Pescaderia,Carrer de Cartellà,60,41.4283151,2.1709859,supermarket
shop,supermarket,,,,,,,Dia,,,41.3821096,2.16987,supermarket
shop,butcher,,,,,,,Cansaladeria,,,41.4243268,2.2033364,butcher
shop,newsagent,,,,,,,El Teu Estanc,,,41.4245033,2.2035724,newsagent
shop,hairdresser,,,,,,,Binefar,,,41.424385,2.203435,hairdresser
shop,convenience,,,,,,,Olives i Conserves Torres,,,41.3784974,2.1619806,convenience
shop,bicycle,,,,,,,Classic Bikes,Carrer de Jovellanos,1,41.3851214,2.1678577,bicycle
shop,optician,,,,,,,General Optica,Rambla de Catalunya,87,41.3924817,2.1612081,optician
shop,sports,,,,,,,Wala,,,41.3613794,2.1378244,sports
shop,hardware,,,,,,,Ferretería Yuste,Carrer de Sardenya,163-167,41.3971325,2.1813697,hardware
shop,dry_cleaning,,,,,,,Tintorería Bugaderia Casp,Carrer de Casp,172,41.3971083,2.1812179,dry_cleaning
shop,kiosk,,,,,,,,Avinguda Diagonal,367,41.3970757,2.1626853,kiosk
shop,tyres,,,,,,,Pneumatics Valldaura,Passeig de Valldaura,187,41.4386039,2.1753697,tyres
shop,car,,,,,,,Automoviles Dominguez y Raul,Passeig de Valldaura,145,41.438755,2.1734611,car
shop,hearing_aids,,,,,,,Amplifon,Rambla de Guipúscoa,141;143,41.4226689,2.205184,hearing_aids
shop,supermarket,,,,,,,,,,41.3776083,2.175603,supermarket
shop,kiosk,,,,,,,,,,41.4391222,2.1664672,kiosk
shop,lottery,,,,,,,,,,41.4389644,2.1663485,lottery
shop,coffee,,,,,,,Creyon Cafe,,,41.3980948,2.1703022,coffee
shop,stationery,,,,,,,,,,41.4110306,2.1614978,stationery
shop,tyres,,,,,,,Lassa,,,41.3964937,2.1821702,tyres
shop,video,,,,,,,,,,41.3962857,2.1820331,video
shop,greengrocer,,,,,,,Fruita dolca,,,41.3962184,2.1819386,greengrocer
shop,kiosk,,,,,,,GoodNews,,,41.3991799,2.1808103,kiosk
shop,vacant,,,,,,,,,,41.3921712,2.1438583,vacant
shop,hairdresser,,,,,,,Peluquería Liñan,Carrer de Santa Engràcia,119;123,41.4422855,2.1799098,hairdresser
shop,bakery,,,,,,,El forn de barri,,,41.3994688,2.1788428,bakery
shop,supermarket,,,,,,,Casa Ametller,Carrer de Padilla,230,41.4050395,2.1782408,supermarket
shop,supermarket,,,,,,,Caprabo,Carrer de Mallorca,425,41.4054123,2.1769855,supermarket
shop,supermarket,,,,,,,Dia,Carrer de Padilla,231,41.4045329,2.178466,supermarket
shop,clothes,,,,,,,Confecciones Padilla,,,41.4053524,2.1774632,clothes
shop,clothes,,,,,,,Basic Barcelona,Carrer del Portal Nou,17,41.3885854,2.1806027,clothes
shop,kiosk,,,,,,,,,,41.4115644,2.164438,kiosk
shop,computer,,,,,,,BCNdynamics,Carrer de Sepúlveda,61-63,41.3781845,2.1556094,computer
shop,books,,,,,,,Llibreria Calders,Passatge Calders,9,41.3767085,2.1622042,books
shop,tobacco,,,,,,,,Ronda del Guinardó,,41.4168332,2.1748507,tobacco
shop,bakery,,,,,,,,Ronda del Guinardó,,41.4169078,2.1745593,bakery
shop,hardware,,,,,,,"Contaval automatismos y componentes electrónicos, S.L.",Carrer de Sant Pere d'Abanto,22,41.3723545,2.1429068,hardware
shop,kiosk,,,,,,,kiosco,,,41.4160739,2.1747183,kiosk
shop,convenience,,,,,,,Carrefour Express,,,41.376775,2.1720141,convenience
shop,supermarket,,,,,,,,,,41.3794904,2.1672795,supermarket
shop,supermarket,,,,,,,,,,41.3805804,2.167645,supermarket
shop,convenience,,,,,,,Avinyo Supermercat,Carrer d'Avinyó,39,41.3801992,2.1794777,convenience
shop,convenience,,,,,,,,,,41.3806365,2.1880355,convenience
shop,greengrocer,,,,,,,Liu,,,41.4063354,2.1725828,greengrocer
shop,greengrocer,,,,,,,,,,41.4106036,2.1662216,greengrocer
shop,hardware,,,,,,,Ferreteria Rodríguez,Carrer de la Riera Blanca,105-107,41.3721322,2.1267479,hardware
shop,hairdresser,,,,,,,Stigma,,,41.417722,2.1743003,hairdresser
shop,bicycle,,,,,,,Vander Bike,Carrer de Berlín,6,41.3822652,2.1371945,bicycle
shop,medical_supply,,,,,,,,Carrer de Sant Quintí,,41.4161978,2.1746636,medical_supply
shop,bicycle,,,,,,,DBike-Us,Carrer de Numància,40,41.3830516,2.1394873,bicycle
shop,kiosk,,,,,,,,,,41.3758228,2.1232943,kiosk
shop,hairdresser,,,,,,,,,,41.3743118,2.1657712,hairdresser
shop,supermarket,,,,,,,Mallorca,,,41.3968803,2.1668075,supermarket
shop,chemist,,,,,,,Goccia Verde,Manso,33,41.3768885,2.1606168,chemist
shop,gift,bicycle_rental,,,,,,The Brummell Shop,Carrer Nou de la Rambla,174,41.3716197,2.1664213,gift
shop,supermarket,,,,,,,Mercadona,Carrer de la Indústria,129,41.4082199,2.1724743,supermarket
shop,laundry,,,,,,,Splash,,,41.3860961,2.1611544,laundry
shop,hairdresser,,,,,,,,199,199,41.386147,2.161205,hairdresser
shop,car,,,,,,,Romauto,,,41.4118649,2.2042957,car
shop,garden_centre,,,,,,,A Cal Agusti,,,41.4144372,2.2062752,garden_centre
shop,supermarket,,,,,,,Mercadona,,,41.4375487,2.1936151,supermarket
shop,radiotechnics,,,,,,,Diotronic S.A.,Carrer de Muntaner,53,41.3860033,2.1600371,radiotechnics
shop,hairdresser,,,,,,,,,,41.3782048,2.1183306,hairdresser
shop,erotic,,,,,,,Boyberry Barcelona,Carrer de Calàbria,96,41.3793289,2.1557861,erotic
shop,greengrocer,,,,,,,,,,41.4369962,2.1735536,greengrocer
shop,variety_store,,,,,,,Basar Orient,Carrer de Sant Antoni Maria Claret,,41.4181067,2.1837966,variety_store
shop,supermarket,,,,,,,Condis,Carrer de las Navas de Tolosa,355,41.4181472,2.1829547,supermarket
shop,hairdresser,,,,,,,Perruqueria Navas,Carrer de Las Navas de Tolosa,355-359,41.4180824,2.1830364,hairdresser
shop,hairdresser,,,,,,,Perruqueria Rosa Farré,Carrer de Biscaia,419,41.4199115,2.1827648,hairdresser
shop,supermarket,,,,,,,Keisy,Carrer de Bailèn,214,41.4022225,2.1638196,supermarket
shop,clothes,,,,,,,Lila,Carrer de Bailèn,203,41.4019848,2.163726,clothes
shop,clothes,,,,,,,Els ximplets,Carrer de Bailèn,201,41.4019364,2.1638026,clothes
shop,houseware,,,,,,,Plàstics Dols,Carrer de Bailèn,201,41.4019118,2.1638368,houseware
shop,tobacco,,,,,,,Tabacs,Carrer de Bailèn,208,41.4020807,2.1640017,tobacco
shop,clothes,,,,,,,Bamboo,Carrer de Bailèn,210,41.4021064,2.1639541,clothes
shop,electronics,,,,,,,Euronics,Carrer de Bailèn,210,41.4021421,2.1639125,electronics
shop,car_repair,,,,,,,Tallers Garcés,Carrer de Bailèn,218,41.4023989,2.1635697,car_repair
shop,lottery,,,,,,,Loteria n°167,Carrer de Badajoz,17,41.3952245,2.1997251,lottery
shop,car_repair,,,,,,,Taller Vidiella,Carrer de Roger de Flor,306,41.4041275,2.1658137,car_repair
shop,supermarket,,,,,,,Molsa,Ronda de Sant Pau,49,41.3772039,2.1647548,supermarket
shop,supermarket,,,,,,,Mercadona,Avinguda Meridiana,326,41.4255051,2.1869263,supermarket
shop,bakery,,,,,,,La Fabrique,Creu dels Molers,,41.3734554,2.1609326,bakery
shop,pastry,,,,,,,Pastisseria Casas,Creu dels Molers,24,41.3734882,2.1615101,pastry
shop,car_repair,,,,,,,Talleres ORGAMA,Carrer de Badajoz,22,41.3952396,2.2000493,car_repair
shop,tableware,,,,,,,Torrero Vidre,Carrer d'Entença,10,41.3756469,2.1561021,tableware
shop,bakery,,,,,,,Forn Ideal,Carrer de Ramón y Cajal,120,41.4044837,2.161786,bakery
shop,bakery,,,,,,,Forn de pa Belmonte,Carrer de Manso,50,41.3771482,2.1614587,bakery
shop,houseware,,,,,,,Pilma outlet,Llançà,33,41.3794266,2.1461723,houseware
shop,books,,,,,,,Can Lletres,València,16,41.3790986,2.1455104,books
shop,bakery,,,,,,,Le Fournil,Carrer de Badajoz,27,41.3957571,2.1990075,bakery
shop,hairdresser,,,,,,,,,,41.3781805,2.1190817,hairdresser
shop,bakery,,,,,,,Granier,,,41.4188394,2.1999547,bakery
shop,interior_decoration,,,,,,,Grupo-Hogar 2000,,,41.4187001,2.1997697,interior_decoration
shop,herbalist,,,,,,,Herbolari Montserrat,,,41.4182962,2.199232,herbalist
shop,telecommunication,,,,,,,Vodafone,,,41.4183639,2.1993215,telecommunication
shop,dairy,,,,,,,La Lleteria,Carrer de Salvà,42,41.3729512,2.1654783,dairy
shop,sewing,,,,,,,Merceria Olga,Plaça del setge de 1714,1,41.3740868,2.1609226,sewing
shop,stationery,,,,,,,Papereria Karma,Plaça del setge de 1714,1,41.3740606,2.1610058,stationery
shop,ticket,,,,,,,Palau de la Música Catalana,,,41.3876073,2.17492,ticket
shop,kiosk,,,,,,,Quiosc,Plaça del setge de 1714,,41.3741541,2.1610319,kiosk
shop,agrarian,,,,,,,Doctor Veg,Carrer de Manuel de Falla,3,41.3932111,2.1240674,agrarian
shop,clothes,,,,,,,Lencería Peyrona Matias,Carrer de Bailèn,207,41.4021281,2.1635497,clothes
shop,hairdresser,,,,,,,Perruquería d'homes Manel,Carrer de Bailèn,211,41.4023083,2.1633057,hairdresser
shop,electrical,,,,,,,Insergo,Carrer de Bailèn,199,41.4017708,2.1639723,electrical
shop,variety_store,,,,,,,Maxi Home,Carrer de Bailèn,197,41.40172,2.1640414,variety_store
shop,beauty,,,,,,,Beauty Dreams,Carrer de Bailèn,213,41.4023829,2.1632164,beauty
shop,car,,,,,,,Cars Bailen,Carrer de Bailèn,213,41.4024043,2.1631943,car
shop,hairdresser,,,,,,,Perruqueria David,Carrer de Bailèn,213,41.4024312,2.1631625,hairdresser
shop,furniture,,,,,,,Mobles i decoració Bauzuri,Carrer de Bailèn,215,41.4024638,2.1631167,furniture
shop,mobile_phone,,,,,,,Fahad Móviles,Carrer de Bailèn,217,41.4025798,2.1629783,mobile_phone
shop,beauty,,,,,,,Isma Glamour,Carrer de Bailèn,220,41.4024748,2.1634646,beauty
shop,interior_decoration,,,,,,,Isma Decoración,Carrer de Bailèn,222,41.4025061,2.1634171,interior_decoration
shop,hairdresser,,,,,,,Suazo Barber 504,Carrer de Bailèn,207,41.4021598,2.1635097,hairdresser
shop,beauty,,,,,,,Mans amb gràcia - Centro de estética,Carrer d'Ana María Matute Ausejo,25,41.4155825,2.1578866,beauty
shop,sports,,,,,,,Inercia,Carrer de Roger de Flor,10-14,41.3902953,2.1840412,sports
shop,tattoo,,,,,,,Rotative,Carrer de Bailèn,209,41.4022345,2.1633922,tattoo
shop,chemist,,,,,,,Droguería Prats,Carrer de Bailèn,"193,195",41.4016318,2.1642119,chemist
shop,coffee,,,,,,,l'Andana,,,41.3835986,2.1324988,coffee
shop,health_food,,,,,,,Llegums Cardona,Carrer de la Indústria,4,41.4019116,2.1645645,health_food
shop,beauty,,,,,,,Calma-Zen,Carrer de la Indústria,3,41.4020973,2.1643452,beauty
shop,confectionery,,,,,,,Regaliz Ebro,,,41.3899096,2.179042,confectionery
shop,convenience,,,,,,,Superprecio,Carrer de Bailèn,185,41.4014001,2.1645174,convenience
shop,greengrocer,,,,,,,Fruites i Verdures Naima,Carrer de Bailèn,185,41.4014396,2.1644623,greengrocer
shop,wine,,,,,,,Art de vins,Carrer de Villarroel,18,41.3814283,2.1620118,wine
shop,wine,,,,,,,Bodega Grau,Carrer de Xifré,67,41.4102754,2.1816024,wine
shop,supermarket,,,,,,,Condis,Carrer de la Indústria,10,41.402147,2.164886,supermarket
shop,books,,,,,,,Nollegiu. Emprobador de llibres. Llibreria i café,Carrer Pons i Subirà,3,41.4005327,2.2047851,books
shop,kiosk,,,,,,,,Plaça de la Font Castellana,,41.4152597,2.166509,kiosk
shop,bakery,,,,,,,Forn de la Vilamala,Carrer dels Agullers,,41.3826331,2.1818054,bakery
shop,supermarket,,,,,,,Condis,,,41.4289143,2.1625316,supermarket
shop,supermarket,,,,,,,Caprabo,,,41.3896311,2.1438878,supermarket
shop,kiosk,,,,,,,,,,41.4141493,2.2018055,kiosk
shop,bicycle,,,,,,,Bikesec,Carrer del Poeta Cabanyes,45,41.3732529,2.1651252,bicycle
shop,kiosk,,,,,,,,,,41.4147937,2.2029456,kiosk
shop,greengrocer,,,,,,,Tap i Carbassa,,,41.4139013,2.2017385,greengrocer
shop,chemist,,,,,,,Clarel,,,41.4138798,2.2016957,chemist
shop,mobile_phone,,,,,,,India Mobil,,,41.4135661,2.201333,mobile_phone
shop,bakery,,,,,,,Mon Pa,,,41.4135095,2.2012457,bakery
shop,greengrocer,,,,,,,El Racó De La Fruita,,,41.4134525,2.2011745,greengrocer
shop,supermarket,,,,,,,Charter,Carrer de la Marina,301-303,41.4065274,2.1715831,supermarket
shop,lottery,,,,,,,,,,41.413739,2.2028161,lottery
shop,bakery,,,,,,,Forn Serra,Carrer de l'Olivera,31,41.3735834,2.1573765,bakery
shop,shoes,,,,,,,Denia,,,41.4061262,2.1725269,shoes
shop,car_repair,,,,,,,A. S. Califòrnia,,,41.4058286,2.1724403,car_repair
shop,health_food,,,,,,,Coco Vegans,Avinguda Diagonal,329,41.3987602,2.1695787,health_food
shop,tobacco,,,,,,,,,,41.3965906,2.1712415,tobacco
shop,motorcycle,,,,,,,Moto Aranda Taller Servicio Técnico,Carrer de Pau Claris,158-160,41.3945936,2.1648566,motorcycle
shop,bakery,,,,,,,Patisseria Hofmann,Carrer dels Flassaders,44,41.3850546,2.1826676,bakery
shop,books,,,,,,,laie Pau Claris librería-café,Carrer de Pau Claris,85,41.389847,2.1707007,books
shop,vacant,,,,,,,,,,41.4034072,2.1712428,vacant
shop,bakery,,,,,,,+Calida:d,,,41.4034789,2.1712311,bakery
shop,greengrocer,,,,,,,Fresco,,,41.4037329,2.1708825,greengrocer
shop,general,,,,,,,Sagrada,,,41.4027388,2.1701041,general
shop,paint,,,,,,,Mil colores,Carrer de l'Olivera,25,41.3735483,2.1578488,paint
shop,bakery,,,,,,,Forn de Pa Sabadell,Carrer de Roger de Flor,34,41.4041535,2.1652855,bakery
shop,alcohol,,,,,,,Torres,Carrer Nou de la Rambla,25,41.3780816,2.1733678,alcohol
shop,car_repair,,,,,,,J. C. J. Automoción,Carrer de Finlàndia,19,41.373779,2.1356135,car_repair
shop,supermarket,,,,,,,ALDI,Carrer de l'Escorial,10,41.4054024,2.1632557,supermarket
shop,florist,,,,,,,,,,41.4047867,2.1660213,florist
shop,supermarket,,,,,,,Mercadona,Carrer de Veneçuela,139-149,41.4138775,2.212077,supermarket
shop,bakery,restaurant,,,,,,Forneria Tiana,Carrer Ample,27,41.3801339,2.1796136,bakery
shop,hairdresser,,,,,,,Raffel Pages Canuda,Carrer de la Canuda,27,41.3847898,2.1722414,hairdresser
shop,sports,,,,,,,New Body,Travessera de Gràcia,"299,301",41.4062118,2.1653605,sports
shop,supermarket,,,,,,,Mercadona,Ronda de Sant Pere,31,41.390614,2.1756645,supermarket
shop,supermarket,,,,,,,Veritas,Carrer de Còrsega,302,41.3956445,2.1583462,supermarket
shop,supermarket,,,,,,,Veritas,Via Laietana,28,41.3845253,2.1782537,supermarket
shop,furniture,,,,,,,Ecohogar,,,41.4074534,2.1633212,furniture
shop,books,,,,,,,Re-Read Libreria,Passeig de Sant Joan,152,41.4021978,2.1663167,books
shop,supermarket,,,,,,,Condis,Carrer d'Elkano,51,41.3736866,2.1615808,supermarket
shop,wine,,,,,,,Cap de suro,Carrer de Jaume Fabra,12,41.3743507,2.1596251,wine
shop,supermarket,,,,,,,Caprabo,,,41.3859243,2.1783567,supermarket
shop,supermarket,,,,,,,Condis,Carrer del Doctor Pi i Molist,72,41.4332698,2.1733389,supermarket
shop,gift,,,,,,,To Be Concept,Carrer de Joaquín Costa,9,41.3814151,2.1668095,gift
shop,convenience,,,,,,,Jo també sóc al·lèrgic,Vilamarí,26,41.3764169,2.15285,convenience
shop,interior_decoration,,,,,,,les eines,Carrer de Bailèn,12,41.3920084,2.1773255,interior_decoration
shop,clothes,,,,,,,Jofre,Carrer de Francesc Pérez-Cabrero,13,41.3941735,2.1393554,clothes
shop,optician,,,,,,,Visionmarket,Ronda de Sant Pere,55,41.3915855,2.1792671,optician
shop,clothes,,,,,,,Textil Louise De S L,Ronda de Sant Pere,49,41.3914458,2.1788938,clothes
shop,clothes,,,,,,,La Dolce Vita Moda Hombre,Ronda de Sant Pere,54,41.3904831,2.1773256,clothes
shop,shoes,,,,,,,The Outpost,Carrer del Rosselló,281B,41.3978572,2.1631715,shoes
shop,clothes,,,,,,,La Comercial,Carrer del Rec,52,41.3844999,2.1837653,clothes
shop,shoes,,,,,,,La Manual Alpargatera,Carrer d'Avinyó,7,41.3815528,2.1761225,shoes
shop,butcher,,,,,,,Casa tio,,,41.4256073,2.1763581,butcher
shop,bakery,,,,,,,Forn Elias,Carrer de Rogent,87,41.4120851,2.1807968,bakery
shop,bakery,,,,,,,,,,41.429736,2.1606071,bakery
shop,mobile_phone,,,,,,,Tuanity,Carrer d'Ulldecona,21-31,41.3505585,2.1409574,mobile_phone
shop,copyshop,,,,,,,Copisteria tottot estampar,,,41.3831096,2.1319645,copyshop
shop,clothes,,,,,,,,,,41.3922073,2.1741712,clothes
shop,department_store,,,,,,,Travessa outdoor,Carrer de Galileu,64,41.3778646,2.1352184,department_store
shop,convenience,,,,,,,Mercat Princesa,Carrer del Sabateret,1,41.38566,2.1821342,convenience
shop,motorcycle_repair,,,,,,,RMoon,Carrer del Vint-i-sis de Gener de 1641,40,41.3748063,2.1415631,motorcycle_repair
shop,convenience,,,,,,,Maa Supermercat,Plaça de Tetuan,8,41.3942225,2.1753714,convenience
shop,outdoor,,,,,,,Outdoor Barcelona,Gran Via de les Corts Catalanes,636,41.3897069,2.1691293,outdoor
shop,outdoor,,,,,,,Vertic Outdoor S L,,,41.3807743,2.1507641,outdoor
shop,clothes,,,,,,,Bogo Vintage,Carrer dels Tallers,67,41.3848604,2.1671715,clothes
shop,bicycle,,,,,,,Bicicletes Castells,Girona,39,41.3926073,2.1738067,bicycle
shop,bakery,,,,,,,Vila - Forn de Pa,Carrer del Paraguai,1,41.4162983,2.2062781,bakery
shop,supermarket,,,,,,,Sorli Discau,Carrer del Paraguai,3,41.4164049,2.2064241,supermarket
shop,bakery,,,,,,,Macxi Pa,Carrer de Puigcerdà,196-202,41.4183019,2.2057143,bakery
shop,supermarket,,,,,,,Sorli Discau,,,41.4183312,2.2053724,supermarket
shop,supermarket,,,,,,,Caprabo,,,41.4197657,2.2020355,supermarket
shop,yoga,,,,sports_centre,,,yogaia,Passeig de Sant Joan,121,41.4004012,2.1677995,yoga
shop,clothes,,,,,,,Burberry outlet,,,41.4114685,2.1885166,clothes
shop,bicycle,,,,,,,Green bikes,Carrer Ample,53,41.3813317,2.18056,bicycle
shop,computer,,,,,,,Grup Tècnic Informàtic Artech,Carrer de la Garrotxa 6,,41.419604,2.1801911,computer
shop,travel_agency,,,,,,,Atlassib Barcelona,Carrer de Provença,38,41.3825035,2.1455709,travel_agency
shop,convenience,,,,,,,,,,41.403496,2.1984562,convenience
shop,greengrocer,,,,,,,SUPER FRUIT,,,41.3809729,2.1521389,greengrocer
shop,bakery,,,,,,,Nou Joanet,Carrer de València,227,41.391285,2.1612086,bakery
shop,books,,,,,,,,,,41.384686,2.118913,books
shop,car_repair,,,,,,,Midas,,,41.3939471,2.1875198,car_repair
shop,hairdresser,,,,,,,Marco Aldany,,,41.3941611,2.1872169,hairdresser
shop,bakery,cafe,,,,,,Bread Bucket,,,41.3967509,2.1929295,bakery
shop,gift,,,,,,,ALE-HOP,,,41.3790821,2.1753208,gift
shop,toys,,,,,,,Dori Dori,,,41.3919092,2.1789472,toys
shop,supermarket,,,,,,,Suma,,,41.3918035,2.1787023,supermarket
shop,books,,,,,,,Freaks Comics,,,41.3917373,2.1786055,books
shop,books,,,,,,,Norma Comics,Passeig de Sant Joan,9,41.3922931,2.1785039,books
shop,haberdashery,,,,,,,Azaduhi,Carrer de Bailèn,14,41.3920895,2.1772068,haberdashery
shop,florist,,,,,,,María,,,41.3927459,2.1776962,florist
shop,hairdresser,,,,,,,Pujola,,,41.3935994,2.1767832,hairdresser
shop,convenience,,,,,,,Carrefour Express,,,41.3932626,2.1752293,convenience
shop,stationery,,,,,,,CCD,,,41.391437,2.189463,stationery
shop,car_repair,,,,,,,Boxes,,,41.3934842,2.1892867,car_repair
shop,bakery,,,,,,,365,,,41.3893923,2.1743981,bakery
shop,gift,,,,,,,ALE-HOP,,,41.3857534,2.1768471,gift
shop,books,,,,,,,Gigamesh,Carrer de Bailèn,8,41.3918306,2.1775425,books
shop,gift,,,,,,,Snow Dreams SexShop & Cruising,,,41.3939001,2.1533381,gift
shop,erotic,,,,,,,Sexyland Sexshop & Cruising,Carrer de Còrsega,329,41.3973664,2.1602518,erotic
shop,gift,,,,,,,Erotixx Sexshop & Cruising,,,41.3869515,2.1573705,gift
shop,travel_agency,,,,,,,SolViajes,Carrer de Blai,55,41.374422,2.162395,travel_agency
shop,bicycle,,,,,,,Cicliks,Travessia de Sant Antoni,3,41.4021144,2.1545061,bicycle
shop,gift,,,,,,,Seed Center Barcelona,Carrer d'Avinyó,29,41.3805823,2.1783432,gift
shop,cannabis,,,,,,,SantYerbasi Grow Shop,Carrer del Berlinès,4,41.4036101,2.139879,cannabis
shop,furniture,,,,,,,Antique boutique,Carrer de Sèneca,16,41.3970898,2.1566455,furniture
shop,books,,,,,,,Llibreria Saturnàlia,Carrer del Planeta,17,41.4016222,2.1562376,books
shop,optician,,,,,,,Òptica Gantzer,Carrer de Badalona,11,41.3784032,2.1364106,optician
shop,clothes,,,,,,,Zara,,,41.3853883,2.1693629,clothes
shop,gift,,,,,,,Sukot,Carrer de la Llibreteria,22,41.383355,2.177647,gift
shop,bakery,,,,,,,365 Café,,,41.4021454,2.1738907,bakery
shop,car_repair,,,,,,,,Ronda del Guinardó,22,41.4119573,2.1632288,car_repair
shop,butcher,,,,,,,,,,41.4106135,2.1639691,butcher
shop,beauty,,,,,,,DyN clínica Podologica,Carrer del Segre,86,41.4314904,2.1943998,beauty
shop,florist,,,,,,,Floristeria Diaz,,,41.4181462,2.2037307,florist
shop,clothes,,,,,,,Loja Nanos,,,41.3933089,2.1598711,clothes
shop,clothes,,,,,,,Massimo Dutti,Avinguda del Portal de l'Àngel,32,41.3862771,2.1724684,clothes
shop,clothes,,,,,,,Gocco - El Corte Inglés Plaça de Catalunya,,,41.3877469,2.1710264,clothes
shop,gift,,,,,,,Kiko Make Up Milano,,,41.3840785,2.1741836,gift
shop,clothes,,,,,,,Gocco Rambla,,,41.3937236,2.1595676,clothes
shop,clothes,,,,,,,Mango,Passeig de Gràcia,22,41.390105,2.1679907,clothes
shop,clothes,,,,,,,Mango Kids,,,41.3917055,2.1631493,clothes
shop,shoes,,,,,,,Foot Locker,Carrer de la Portaferrissa,16,41.3834381,2.1729518,shoes
shop,shoes,,,,,,,Como Agua de Mayo / Pedro Garcia,,,41.3836149,2.1813627,shoes
shop,vacant,,,,,,,,,,41.4166335,2.1950066,vacant
shop,greengrocer,,,,,,,,,,41.4166981,2.1954962,greengrocer
shop,wine,,,,,,,Celler MF,Carrer de Huelva,37,41.4164889,2.1947045,wine
shop,supermarket,,,,,,,Caprabo,Carrer de Fluvià,245-247,41.4158211,2.1951019,supermarket
shop,clothes,,,,,,,TDM,,,41.4157185,2.1958556,clothes
shop,stationery,,,,,,,Ronsol,Carrer dels Provençals,268,41.4170119,2.1961909,stationery
shop,bakery,,,,,,,Maxcipa,,,41.4170803,2.1961641,bakery
shop,clothes,,,,,,,Ros,,,41.4162576,2.196561,clothes
shop,bakery,,,,,,,Granier,,,41.4163976,2.1965627,bakery
shop,shoes,,,,,,,,,,41.4165372,2.1969795,shoes
shop,stationery,,,,,,,,,,41.4169395,2.1975105,stationery
shop,supermarket,,,,,,,Condis,Carrer de Fluvià,,41.4155978,2.1953782,supermarket
shop,supermarket,,,,,,,BonÀrea,,,41.4175854,2.2049086,supermarket
shop,furniture,,,,,,,Muebles Fran,,,41.4174376,2.2047295,furniture
shop,rental,bicycle_rental,,,,,,Rent a Bike BCN - Shop Placa Espanya,Carrer de Llançà,13,41.3758231,2.1510172,rental
shop,bakery,cafe,,,,,,Macxipá,,,41.3905046,2.1258559,bakery
shop,greengrocer,,,,,,,Cal Rosset,Carrer de Nàpols,155,41.3971327,2.176868,greengrocer
shop,watches,,,,,,,TAG Heuer,Passeig de Gràcia,59,41.3926931,2.1636756,watches
shop,greengrocer,,,,,,,Luca's Fruit,,,41.4133679,2.1936004,greengrocer
shop,beauty,,,,,,,French kiss beauty,Avinguda del Portal de l'Àngel,23,41.3860311,2.1721757,beauty
shop,sports,,,,,,,Decathlon,Carrer Gran de Gràcia,54,41.3993584,2.1562313,sports
shop,shoes,,,,,,,Lares,,,41.4148595,2.1947368,shoes
shop,vacant,,,,,,,,,,41.4158863,2.1961194,vacant
shop,clothes,,,,,,,Murffy,,,41.4160514,2.196313,clothes
shop,sports,,,,,,,Sports Europa,,,41.3805598,2.1740449,sports
shop,sports,,,,,,,FCBarcelona.Botiga,,,41.4027827,2.1747475,sports
shop,second_hand,,,,,,,Re-Nuevo,Carrer de la Selva de Mar,177,41.4147791,2.2009286,second_hand
shop,bed,,,,,,,Sueños,Rambla de Guipúscoa,41,41.4153808,2.1954247,bed
shop,variety_store,,,,,,,Bazar Elena,Carrer de Fluvià,241,41.4156544,2.1953189,variety_store
shop,convenience,,,,,,,Krakoviak,Carrer de Sicília,326,41.4030283,2.1717211,convenience
shop,cosmetics,,,,,,,Lush,Rambla de Catalunya,52,41.3907523,2.1641704,cosmetics
shop,supermarket,,,,,,,Veritas,Gran Via de les Corts Catalanes,373-385,41.3759282,2.1491964,supermarket
shop,supermarket,,,,,,,Veritas,Carrer del Doctor Dou,17,41.3827281,2.1685458,supermarket
shop,cosmetics,,,,,,,Lush,Gran Via de les Corts Catalanes,373,41.3765964,2.1492991,cosmetics
shop,bakery,,,,,,,La Pallaresa,Carrer de Petritxol,11,41.3828951,2.1728035,bakery
shop,vacant,,,,,,,,Carrer dels Boters,4,41.3839063,2.1741064,vacant
shop,greengrocer,,,,,,,La Bordiny,Carrer de Jaume I,11,41.383278,2.1777725,greengrocer
shop,clothes,,,,,,,COS,,,41.3903498,2.1657797,clothes
shop,clothes,,,,,,,Mango,Passeig de Gràcia,36,41.3910076,2.1668512,clothes
shop,clothes,,,,,,,Brandi Melville,Passeig de Gràcia,21,41.3947898,2.1590894,clothes
shop,bakery,,,,,,,Tartela,Carrer de Llançà,32,41.3771709,2.149765,bakery
shop,deli,,,,,,,La Italiana,Carrer del Bonsuccés,6,41.3841976,2.1699033,deli
shop,clothes,,,,,,,Zara,Avinguda del Portal de l'Àngel,11,41.3853961,2.1731874,clothes
shop,clothes,,,,,,,Lefties,Avinguda del Portal de l'Àngel,22,41.3858021,2.1730545,clothes
shop,clothes,,,,,,,JD,Avinguda del Portal de l'Àngel,9,41.3852602,2.1734154,clothes
shop,greengrocer,,,,,,,Bofarull,,,41.4171452,2.1882484,greengrocer
shop,laundry,,,,,,,Wash,,,41.371507,2.1333929,laundry
shop,gift,,,,,,,Quimera Airsoft,Carrer de Còrsega,"505,507",41.4041376,2.1693103,gift
shop,lottery,,,,,,,,,,41.4182753,2.203999,lottery
shop,clothes,,,,,,,Mango,Avinguda del Portal de l'Àngel,7,41.3847825,2.1738543,clothes
shop,vacant,,,,,,,,,,41.3839594,2.1717601,vacant
shop,supermarket,,,,,,,BonÀrea,,,41.4076204,2.1882947,supermarket
shop,fabric,,,,,,,Mertxesites,Carrer de la Sèquia Comtal,4-6,41.4082822,2.1877505,fabric
shop,florist,,,,,,,Flors Ogima,,,41.4129038,2.1943594,florist
shop,tailor,,,,,,,Merceria i Géneres de Punt,,,41.4129948,2.1929687,tailor
shop,supermarket,,,,,,,Condis,,,41.4131069,2.19411,supermarket
shop,gift,,,,,,,El Ingenio,Carrer d'en Rauric,6,41.3813419,2.1748187,gift
shop,vacant,,,,,,,,,,41.4103558,2.1831844,vacant
shop,travel_agency,,,,,,,Viatges Jaipur,Carrer de Bailèn,217,41.4025403,2.1630295,travel_agency
shop,greengrocer,,,,,,,Frutería Gran Vista,Carrer de la Gran Vista,158,41.4188545,2.1574627,greengrocer
shop,shoes,,,,,,,Zapatería Lares,Rambla de Prim,,41.4212056,2.2056811,shoes
shop,supermarket,,,,,,,Hiper Galicia,Plaça dels Països Catalans,1-7,41.3786928,2.1396824,supermarket
shop,hairdresser,,,,,,,Pelopelu,Carrer del Perú,275,41.4148205,2.2042716,hairdresser
shop,supermarket,,,,,,,bonarea,,,41.3934288,2.1882383,supermarket
shop,supermarket,,,,,,,Dia,Rambla de Prim,155-7,41.4218024,2.2048464,supermarket
shop,laundry,,,,,,,Señor Espuma,,,41.420942,2.2052836,laundry
shop,beverages,,,,,,,La Bodega,Carrer de Duoda,,41.4207947,2.2054905,beverages
shop,surf;skate;snowboard,,,,,,,Sea You - Tactic Spot,Carrer d'Enric Granados,11,41.3877878,2.1622397,surf;skate;snowboard
shop,gift,,,,,,,Totem,Carrer d'Avinyó,28,41.380911,2.1771594,gift
shop,clothes,,,,,,,Bazaar,Carrer d'Avinyó,28,41.3809274,2.1771073,clothes
shop,hairdresser,,,,,,,Anthony Llobet,Carrer d'Avinyó,34,41.3805944,2.1779068,hairdresser
shop,optician,,,,,,,Sol,Carrer d'Avinyó,32,41.3807135,2.1776138,optician
shop,clothes,,,,,,,La petite parade,Carrer d'Avinyó,34,41.3806644,2.1777423,clothes
shop,clothes,,,,,,,ColoVintage,Carrer dels Escudellers,48,41.3803592,2.1775875,clothes
shop,gift,,,,,,,A.M Botique,Carrer d'Avinyó,34,41.3806178,2.1778485,gift
shop,stationery,,,,,,,Papyrum,Baixada de la Llibreteria,2,41.3834883,2.1778244,stationery
shop,greengrocer,,,,,,,,,,41.4229043,2.2061095,greengrocer
shop,sports,,,,,,,Trienjoy,,,41.3858668,2.1341257,sports
shop,beauty,,,,,,,Perfumerías San Remo,Carrer d'Àvila,121,41.3993722,2.1919911,beauty
shop,florist,,,,,,,Flors Montserrat,Avinguda de Sant Ramon Nonat,24,41.3769178,2.1169943,florist
shop,supermarket,,,,,,,Badulake Reig,,,41.3774794,2.1156672,supermarket
shop,greengrocer,,,,,,,Disfruta,,,41.3766557,2.1142782,greengrocer
shop,car_repair,,,,,,,,,,41.3767699,2.1143899,car_repair
shop,bakery,,,,,,,,,,41.3766921,2.1143052,bakery
shop,cosmetics,,,,,,,Katy,,,41.3768415,2.1144722,cosmetics
shop,hairdresser,,,,,,,Fina,,,41.3765751,2.114178,hairdresser
shop,convenience,,,,,,,Charter,,,41.3768063,2.1144424,convenience
shop,hairdresser,,,,,,,,,,41.3768234,2.1128245,hairdresser
shop,greengrocer,,,,,,,Áreas de alimentación,,,41.3776679,2.1160498,greengrocer
shop,hairdresser,,,,,,,,,,41.3774334,2.115587,hairdresser
shop,butcher,,,,,,,Avenida,,,41.3771308,2.1169088,butcher
shop,greengrocer,,,,,,,Capella Fruits s.l.,,,41.3292448,2.1151316,greengrocer
shop,bakery,,,,,,,,,,41.3779856,2.1147169,bakery
shop,hairdresser,,,,,,,Pels Péls,,,41.3766263,2.1155025,hairdresser
shop,books,,,,,,,Dusty,,,41.3775171,2.1157402,books
shop,books,,,,,,,Ferpa,,,41.3766254,2.1142311,books
shop,hardware,,,,,,,,,,41.3768812,2.1145358,hardware
shop,supermarket,,,,,,,Almar,,,41.3759295,2.1149871,supermarket
shop,shoes,,,,,,,ASICS,,,41.3903138,2.1370914,shoes
shop,car_repair,,,,,,,Vallesana,,,41.3277541,2.1147701,car_repair
shop,beauty,,,,,,,Hello beauty,,,41.3851305,2.131989,beauty
shop,bakery,,,,,,,forn de sant,Rambla de Catalunya,50,41.3906813,2.1642736,bakery
shop,convenience,,,,,,,,,,41.3849419,2.1323241,convenience
shop,supermarket,,,,,,,Consum,,,41.3848443,2.1321842,supermarket
shop,clothes,,,,,,,Pronto moda,,,41.3850389,2.1324626,clothes
